id,ident,type,name,latitude_deg,longitude_deg,elevation_ft,continent,country_name,iso_country,region_name,iso_region,local_region,municipality,scheduled_service,gps_code,icao_code,iata_code,local_code,home_link,wikipedia_link,keywords,score,last_updated
31055,FAOR,large_airport,"O.R. Tambo International Airport",-26.1392,28.246,5558,AF,"South Africa",ZA,Gauteng,ZA-GT,GT,Johannesburg,1,FAOR,FAOR,JNB,,https://ortambo-airport.com/index.html,https://en.wikipedia.org/wiki/O._R._Tambo_International_Airport,"Johannesburg International Airport, FAJS",1000,2024-06-27T11:02:22+00:00
3183,HECA,large_airport,"Cairo International Airport",30.111534,31.396694,322,AF,Egypt,EG,"Cairo Governorate",EG-C,C,Cairo,1,HECA,HECA,CAI,,,https://en.wikipedia.org/wiki/Cairo_International_Airport,,51675,2022-11-04T15:57:49+00:00
3081,GCLP,large_airport,"Gran Canaria Airport",27.9319,-15.3866,78,AF,Spain,ES,"Canary Islands",ES-CN,CN,"Gran Canaria Island",1,GCLP,GCLP,LPA,,https://www.aena.es/en/gran-canaria.html,https://en.wikipedia.org/wiki/Gran_Canaria_Airport,"Canary Islands, Las Palmas Airport, Gando Airport",1012275,2022-11-01T17:26:09+00:00
2775,FACT,large_airport,"Cape Town International Airport",-33.9648017883,18.6016998291,151,AF,"South Africa",ZA,"Western Cape",ZA-WC,WC,"Cape Town",1,FACT,FACT,CPT,,http://www.airports.co.za/home.asp?pid=229,https://en.wikipedia.org/wiki/Cape_Town_International_Airport,"Kaapstad Internasionale Lughawe, CTIA, DF Malan Airport",51275,2013-12-06T22:30:37+00:00
3083,GCTS,large_airport,"Tenerife Sur Airport",28.0445,-16.5725,209,AF,Spain,ES,"Canary Islands",ES-CN,CN,Tenerife,1,GCTS,GCTS,TFS,,https://www.aena.es/en/tenerife-sur.html,https://en.wikipedia.org/wiki/Tenerife%E2%80%93South_Airport,"Canary Islands, Reina Sofía, TCI, Tenerife South",1010675,2022-11-01T17:26:25+00:00
3206,HKJK,large_airport,"Jomo Kenyatta International Airport",-1.31923997402,36.9277992249,5330,AF,Kenya,KE,"Nairobi Province",KE-110,110,Nairobi,1,HKJK,HKJK,NBO,,http://www.kenyaairports.com/jkia/IndexJkia.php,https://en.wikipedia.org/wiki/Jomo_Kenyatta_International_Airport,"Jkia Airport, Embakasi Airport, Nairobi International Airport",1200,2014-03-14T11:29:28+00:00
3115,GMMX,large_airport,"Menara Airport",31.606899,-8.0363,1545,AF,Morocco,MA,"Marrakech-Safi Region",MA-07,07,Marrakech,1,GMMX,GMMX,RAK,,,https://en.wikipedia.org/wiki/Menara_International_Airport,"Marakesh, Marrakesh",1000,2025-02-20T18:10:58+00:00
3113,GMMN,large_airport,"Mohammed V International Airport",33.3675,-7.58997,656,AF,Morocco,MA,"Casablanca-Settat Region",MA-06,06,Casablanca,1,GMMN,GMMN,CMN,,http://www.onda.ma/ONDA/Fr/Espaces/EspacePassagers/LeReseauAeroportuaireONDA/Lesaeroports/Fiches+d%E2%80%99identit%C3%A9+par+a%C,https://en.wikipedia.org/wiki/Mohammed_V_International_Airport,"CAS, Casabianca, Nouasseur",1200,2023-12-04T20:37:30+00:00
2133,DTTA,large_airport,"Tunis Carthage International Airport",36.851002,10.2272,22,AF,Tunisia,TN,"Tunis Governorate",TN-11,11,Tunis,1,DTTA,DTTA,TUN,,http://www.oaca.nat.tn/english/div_horizontal_tunis_airport_eng.htm,https://en.wikipedia.org/wiki/Tunis-Carthage_International_Airport,"Aéroport international de Tunis-Carthage, مطار تونس قرطاج الدولي",1275,2022-09-13T13:38:08+00:00
3082,GCRR,large_airport,"César Manrique-Lanzarote Airport",28.945499,-13.6052,46,AF,Spain,ES,"Canary Islands",ES-CN,CN,"San Bartolomé",1,GCRR,GCRR,ACE,,https://www.lanzaroteairport.info/barrier-free-disability-assistance-service/,https://en.wikipedia.org/wiki/Lanzarote_Airport,"Arrecife Airport",1050,2024-01-25T09:25:30+00:00
3186,HEGN,large_airport,"Hurghada International Airport",27.176776,33.796692,32,AF,Egypt,EG,"Red Sea Governorate",EG-BA,BA,Hurghada,1,HEGN,HEGN,HRG,,,https://en.wikipedia.org/wiki/Hurghada_International_Airport,"Al Ghardaqah, الغردقة",1150,2022-12-13T16:48:12+00:00
3157,HAAB,large_airport,"Addis Ababa Bole International Airport",8.97789,38.799301,7630,AF,Ethiopia,ET,"Addis Ababa",ET-AA,AA,"Addis Ababa",1,HAAB,HAAB,ADD,,http://www.ethiopianairports.com,https://en.wikipedia.org/wiki/Bole_International_Airport,"Haile Selassie I, Bole International Airport",1050,2021-10-07T10:43:07+00:00
3077,GCFV,large_airport,"Fuerteventura Airport",28.4527,-13.8638,85,AF,Spain,ES,"Canary Islands",ES-CN,CN,"El Matorral",1,GCFV,GCFV,FUE,,https://www.aena.es/en/fuerteventura.html,https://en.wikipedia.org/wiki/Fuerteventura_Airport,,1050,2022-09-13T15:14:12+00:00
3125,GOOY,medium_airport,"Léopold Sédar Senghor International Airport",14.7397,-17.4902,85,AF,Senegal,SN,"Dakar Region",SN-DK,DK,Dakar,0,GOOY,GOOY,DKR,,http://www.aeroportdakar.com/,https://en.wikipedia.org/wiki/Dakar-Yoff-L%C3%A9opold_S%C3%A9dar_Senghor_International_Airport,Yoff,750,2022-12-04T16:23:20+00:00
2090,DGAA,large_airport,"Kotoka International Airport",5.605189800262451,-0.16678600013256073,205,AF,Ghana,GH,"Greater Accra Region",GH-AA,AA,Accra,1,DGAA,DGAA,ACC,,,https://en.wikipedia.org/wiki/Kotoka_International_Airport,,1050,2009-08-28T14:27:03+00:00
3251,HTDA,large_airport,"Julius Nyerere International Airport",-6.87811,39.202599,182,AF,Tanzania,TZ,"Dar-es-Salaam Region",TZ-02,02,"Dar es Salaam",1,HTDA,HTDA,DAR,,http://www.tanzaniairports.com/,https://en.wikipedia.org/wiki/Julius_Nyerere_International_Airport,"HTJN, Mwalimu Julius K. Nyerere, Dar es Salaam International Airport",1050,2017-07-11T20:22:11+00:00
2118,DNMM,large_airport,"Murtala Muhammed International Airport",6.57737,3.32116,135,AF,Nigeria,NG,"Lagos State",NG-LA,LA,Lagos,1,DNMM,DNMM,LOS,,http://www.faannigeria.org/nigeria-airport.php?airport=1,https://en.wikipedia.org/wiki/Murtala_Muhammed_International_Airport,,1275,2025-02-24T18:54:57+00:00
3084,GCXO,medium_airport,"Tenerife Norte-Ciudad de La Laguna Airport",28.4827,-16.341499,2076,AF,Spain,ES,"Canary Islands",ES-CN,CN,Tenerife,1,GCXO,GCXO,TFN,,https://www.aena.es/en/tenerife-norte-ciudad-de-la-laguna.html,https://en.wikipedia.org/wiki/Los_Rodeos_Airport,"Canary Islands, Los Rodeos, TCI",750,2022-11-01T17:27:01+00:00
3263,HUEN,large_airport,"Entebbe International Airport",0.042386,32.443501,3782,AF,Uganda,UG,"Central Region",UG-C,C,Kampala,1,HUEN,HUEN,EBB,,https://entebbe-airport.com/,https://en.wikipedia.org/wiki/Entebbe_International_Airport,,1000,2019-01-13T13:31:58+00:00
2878,FIMP,large_airport,"Sir Seewoosagur Ramgoolam International Airport",-20.430201,57.683601,186,AF,Mauritius,MU,"Grand Port",MU-GP,GP,"Plaine Magnien",1,FIMP,FIMP,MRU,,http://aml.mru.aero/,https://en.wikipedia.org/wiki/Sir_Seewoosagur_Ramgoolam_International_Airport,"Plaisance International Airport",1000,2022-12-21T14:10:27+00:00
3191,HELX,medium_airport,"Luxor International Airport",25.671037,32.706451,276,AF,Egypt,EG,"Luxor Governorate",EG-LX,LX,Luxor,1,HELX,HELX,LXR,,,https://en.wikipedia.org/wiki/Luxor_International_Airport,,750,2024-12-03T17:01:04+00:00
3260,HTZA,large_airport,"Abeid Amani Karume International Airport",-6.22202,39.224899,54,AF,Tanzania,TZ,"Kaskazini Unguja Region",TZ-07,07,Zanzibar,1,HTZA,HTZA,ZNZ,,,https://en.wikipedia.org/wiki/Zanzibar_International_Airport,"HTAK, Zanzibar Airport, Kiembi Samaki",1000,2018-10-21T13:18:33+00:00
3213,HKMO,large_airport,"Moi International Airport",-4.03483,39.5942,200,AF,Kenya,KE,"Coast Province",KE-300,300,Mombasa,1,HKMO,HKMO,MBA,,http://www.kenyaairports.co.ke/kaa/airports/moi/,https://en.wikipedia.org/wiki/Moi_International_Airport,"Mombasa, Port Reitz",1050,2021-10-14T15:05:07+00:00
2132,DTMB,medium_airport,"Monastir Habib Bourguiba International Airport",35.75809860229492,10.75469970703125,9,AF,Tunisia,TN,"Monastir Governorate",TN-52,52,Monastir,1,DTMB,DTMB,MIR,,,https://en.wikipedia.org/wiki/Habib_Bourguiba_International_Airport,,750,2009-06-25T16:23:45+00:00
2993,FSIA,large_airport,"Seychelles International Airport",-4.67434,55.521801,10,AF,Seychelles,SC,"Pointe La Rue",SC-20,20,"Mahe Island",1,FSIA,FSIA,SEZ,,https://seychellesairports.sc/,https://en.wikipedia.org/wiki/Seychelles_International_Airport,,1050,2024-04-30T10:34:15+00:00
3101,GMAD,large_airport,"Al Massira Airport",30.322478,-9.412003,250,AF,Morocco,MA,"Souss-Massa Region",MA-09,09,"Agadir (Temsia)",1,GMAD,GMAD,AGA,,http://www.agadir-airport.com/en/index.php,https://en.wikipedia.org/wiki/Al_Massira_Airport,,1000,2025-02-20T18:11:48+00:00
3039,FYWH,large_airport,"Hosea Kutako International Airport",-22.4799,17.4709,5640,AF,Namibia,NA,"Khomas Region",NA-KH,KH,Windhoek,1,FYWH,FYWH,WDH,,http://airports.com.na/,https://en.wikipedia.org/wiki/Windhoek_Hosea_Kutako_International_Airport,"J.G. Strijdom Airport",1050,2019-01-13T13:21:50+00:00
3249,HSSK,large_airport,"Khartoum International Airport",15.5895,32.5532,1265,AF,Sudan,SD,"Khartoum State",SD-03,03,Khartoum,1,HSSK,HSSK,KRT,,,https://en.wikipedia.org/wiki/Khartoum_International_Airport,HSSS,1000,2021-11-02T10:00:03+00:00
3254,HTKJ,medium_airport,"Kilimanjaro International Airport",-3.42941,37.074501,2932,AF,Tanzania,TZ,"Arusha Region",TZ-01,01,Arusha,1,HTKJ,HTKJ,JRO,,http://www.kilimanjaroairport.co.tz/,https://en.wikipedia.org/wiki/Kilimanjaro_International_Airport,,750,2020-10-23T13:21:37+00:00
2050,DAAG,large_airport,"Houari Boumediene Airport",36.693886,3.214531,82,AF,Algeria,DZ,"Algiers Province",DZ-16,16,Algiers,1,DAAG,DAAG,ALG,,,https://en.wikipedia.org/wiki/Houari_Boumediene_Airport,"Algiers, Maison Blanche",1275,2022-09-13T13:52:37+00:00
2139,DTTJ,medium_airport,"Djerba Zarzis International Airport",33.875,10.7755,19,AF,Tunisia,TN,"Medenine Governorate",TN-82,82,Mellita,1,DTTJ,DTTJ,DJE,,http://www.aeroport-de-djerba-zarzis.com/,https://en.wikipedia.org/wiki/Djerba-Zarzis_Airport,,750,2024-05-09T16:23:59+00:00
2894,FLLS,large_airport,"Kenneth Kaunda International Airport",-15.330833,28.452722,3779,AF,Zambia,ZM,"Lusaka Province",ZM-09,09,Lusaka,1,FLKK,,LUN,,http://www.nacl.co.zm/?page_id=336,https://en.wikipedia.org/wiki/Kenneth_Kaunda_International_Airport,,1050,2022-02-11T15:18:53+00:00
3121,GMTT,large_airport,"Tangier Ibn Battuta Airport",35.731741,-5.921459,62,AF,Morocco,MA,"Tanger-Tétouan-Al Hoceïma Region",MA-01,01,Tangier,1,GMTT,GMTT,TNG,,,https://en.wikipedia.org/wiki/Tangier_Ibn_Battouta_Airport,"Tanger-Boukhalef Airport, Aéroport de Tanger-Ibn Battouta",1000,2025-02-20T18:07:43+00:00
2820,FAPE,medium_airport,"Chief Dawid Stuurman International Airport",-33.984901,25.6173,226,AF,"South Africa",ZA,"Eastern Cape",ZA-EC,EC,"Gqeberha (Port Elizabeth)",1,FAPE,FAPE,PLZ,,http://www.acsa.co.za/home.asp?pid=236,https://en.wikipedia.org/wiki/Chief_Dawid_Stuurman_International_Airport,"H F Verwoerd Airport, Port Elizabeth International Airport",750,2022-08-18T17:09:17+00:00
2800,FALA,medium_airport,"Lanseria International Airport",-25.938499,27.9261,4517,AF,"South Africa",ZA,Gauteng,ZA-GT,GT,Johannesburg,1,FALA,FALA,HLA,,,https://en.wikipedia.org/wiki/Lanseria_Airport,,750,2022-03-09T02:09:34+00:00
3150,GVAC,large_airport,"Amílcar Cabral International Airport",16.7414,-22.9494,177,AF,"Cape Verde",CV,"Barlavento Islands",CV-B,B,Espargos,1,GVAC,GVAC,SID,,,https://en.wikipedia.org/wiki/Am%C3%ADlcar_Cabral_International_Airport,"Sal Island",1050,2019-01-13T13:43:38+00:00
3004,FVFA,medium_airport,"Victoria Falls International Airport",-18.09589958190918,25.839000701904297,3490,AF,Zimbabwe,ZW,"Matabeleland North Province",ZW-MN,MN,"Victoria Falls",1,FVFA,FVFA,VFA,,,https://en.wikipedia.org/wiki/Victoria_Falls_Airport,,750,2008-06-13T14:30:04+00:00
2096,DIAP,medium_airport,"Félix-Houphouët-Boigny International Airport",5.26139,-3.92629,21,AF,"Côte d'Ivoire",CI,"Abidjan (autonomous district)",CI-AB,AB,Abidjan,1,DIAP,DIAP,ABJ,,,https://en.wikipedia.org/wiki/F%C3%A9lix-Houphou%C3%ABt-Boigny_International_Airport,"Port Bouët",750,2022-05-26T10:44:27+00:00
300795,FALE,large_airport,"King Shaka International Airport",-29.6144444444,31.1197222222,295,AF,"South Africa",ZA,Kwazulu-Natal,ZA-NL,NL,Durban,1,FALE,FALE,DUR,,,https://en.wikipedia.org/wiki/King_Shaka_International_Airport,"La Mercy Airport",1000,2013-12-06T22:34:17+00:00
2942,FNLU,large_airport,"Quatro de Fevereiro International Airport",-8.85837,13.2312,243,AF,Angola,AO,"Luanda Province",AO-LUA,LUA,Luanda,1,FNLU,FNLU,LAD,,,https://en.wikipedia.org/wiki/Quatro_de_Fevereiro_Airport,"4 de Fevereiro",1000,2022-04-18T14:11:48+00:00
3237,HRYR,large_airport,"Kigali International Airport",-1.96863,30.1395,4859,AF,Rwanda,RW,"City of Kigali",RW-01,01,Kigali,1,HRYR,HRYR,KGL,,,https://en.wikipedia.org/wiki/Kigali_International_Airport,"Gregoire Kayibanda International Airport, Kanombe International Airport",1050,2022-04-18T14:12:49+00:00
2104,DNAA,large_airport,"Nnamdi Azikiwe International Airport",9.00679,7.26317,1123,AF,Nigeria,NG,"Abuja Capital Territory",NG-FC,FC,Abuja,1,DNAA,DNAA,ABV,,http://www.faannigeria.org/nigeria-airport.php?airport=3,https://en.wikipedia.org/wiki/Nnamdi_Azikiwe_International_Airport,,1275,2023-12-05T11:43:12+00:00
3174,HDAM,large_airport,"Djibouti-Ambouli Airport",11.5473,43.1595,49,AF,Djibouti,DJ,"Djibouti Region",DJ-DJ,DJ,"Djibouti City",1,HDAM,HDAM,JIB,,,https://en.wikipedia.org/wiki/Djibouti-Ambouli_International_Airport,"Camp Lemonnier",1050,2021-11-28T16:51:06+00:00
3040,FZAA,large_airport,"Ndjili International Airport",-4.38575,15.4446,1027,AF,"Democratic Republic of the Congo",CD,"Kinshasa Province",CD-KN,KN,Kinshasa,1,FZAA,FZAA,FIH,,,https://en.wikipedia.org/wiki/N%27djili_Airport,,1050,2019-01-13T13:29:08+00:00
3227,LY-0019,closed,"Tripoli International Airport",32.663502,13.159,263,AF,Libya,LY,"Tripoli District",LY-TB,TB,Tripoli,0,,,,,,https://en.wikipedia.org/wiki/Tripoli_International_Airport,"Tripoli-Castel Benito Airport, RAF Castel Benito, RAF Idris, HLLT, TIP",1050,2025-02-25T14:38:00+00:00
2893,FLLI,medium_airport,"Harry Mwanga Nkumbula International Airport",-17.8218,25.822701,3302,AF,Zambia,ZM,"Southern Province",ZM-07,07,Livingstone,1,FLHN,,LVI,,,https://en.wikipedia.org/wiki/Harry_Mwanga_Nkumbula_International_Airport,FLLI,750,2019-08-06T06:36:23+00:00
3005,FVHA,large_airport,"Robert Gabriel Mugabe International Airport",-17.931801,31.0928,4887,AF,Zimbabwe,ZW,"Harare Metropolitan Province",ZW-HA,HA,Harare,1,FVRG,,HRE,,,https://en.wikipedia.org/wiki/Harare_International_Airport,"FVHA,Harare",1050,2019-01-20T22:10:26+00:00
2975,FQMA,large_airport,"Maputo Airport",-25.920799,32.572601,145,AF,Mozambique,MZ,"Maputo (city)",MZ-MPM,MPM,Maputo,1,FQMA,FQMA,MPM,,,https://en.wikipedia.org/wiki/Maputo_International_Airport,,1050,2019-01-13T13:37:44+00:00
3109,GMME,large_airport,"Rabat-Salé Airport",34.051498,-6.75152,276,AF,Morocco,MA,"Rabat-Salé-Kénitra Region",MA-04,04,Rabat,1,GMME,GMME,RBA,,https://www.onda.ma/en/Our-Airports/Rabat-Sale-Airport,https://en.wikipedia.org/wiki/Sale_Airport,,1000,2025-02-20T18:09:10+00:00
3076,GBYD,large_airport,"Banjul International Airport",13.338,-16.652201,95,AF,Gambia,GM,"Western Division",GM-W,W,Yundum,1,GBYD,GBYD,BJL,,,https://en.wikipedia.org/wiki/Banjul_International_Airport,"Yundum international Airport",1000,2025-03-20T00:05:50+00:00
2905,FMEE,large_airport,"Roland Garros Airport",-20.890087,55.518894,66,AF,Réunion,RE,"Saint-Denis Arrondissement",RE-SD,SD,Sainte-Marie,1,FMEE,FMEE,RUN,,http://www.reunion.aeroport.fr/index.htm,https://en.wikipedia.org/wiki/Roland_Garros_Airport,"Gillot Airport",1050,2022-12-21T14:16:14+00:00
3199,HESN,medium_airport,"Aswan International Airport",23.968137,32.824445,650,AF,Egypt,EG,"Aswan Governorate",EG-ASN,ASN,Aswan,1,HESN,HESN,ASW,,,https://en.wikipedia.org/wiki/Aswan_International_Airport,,750,2022-11-04T17:02:53+00:00
3215,HKNW,medium_airport,"Nairobi Wilson Airport",-1.321720004081726,36.81480026245117,5536,AF,Kenya,KE,"Nairobi Province",KE-110,110,Nairobi,1,HKNW,HKNW,WIL,,http://www.kenyaairports.co.ke/kaa/airports/wilson/,https://en.wikipedia.org/wiki/Wilson_Airport,WLN,750,2009-02-08T10:36:51+00:00
2908,FMMI,large_airport,"Ivato Airport",-18.7969,47.478802,4198,AF,Madagascar,MG,Antananarivo,MG-T,T,Antananarivo,1,FMMI,FMMI,TNR,,https://ravinala-airports.aero/en/,https://en.wikipedia.org/wiki/Ivato_Airport,,1050,2024-04-30T10:38:54+00:00
44483,DTNH,medium_airport,"Enfidha - Hammamet International Airport",36.075833,10.438611,21,AF,Tunisia,TN,"Sousse Governorate",TN-51,51,Enfidha,1,DTNH,DTNH,NBE,DTNH,http://www.enfidhahammametairport.com/,https://en.wikipedia.org/wiki/Enfidha%E2%80%93Hammamet_International_Airport,DTNH,750,2022-04-19T18:52:17+00:00
3018,FWKI,medium_airport,"Kamuzu International Airport",-13.7894,33.780998,4035,AF,Malawi,MW,"Lilongwe District",MW-LI,LI,Lumbadzi,1,FWKI,FWKI,LLW,,,https://en.wikipedia.org/wiki/Kamuzu_International_Airport,"FWLI, Lilongwe International",750,2025-03-20T07:55:09+00:00
3103,GMFF,large_airport,"Fes Saïss International Airport",33.927299,-4.97796,1900,AF,Morocco,MA,"Fès-Meknès Region",MA-03,03,Saïss,1,GMFF,GMFF,FEZ,,,https://en.wikipedia.org/wiki/Sa%C3%AFss_Airport,,1000,2025-02-20T18:08:29+00:00
2998,FTTJ,large_airport,"N'Djamena International Airport",12.1337,15.034,968,AF,Chad,TD,"N'Djamena (city)",TD-ND,ND,N'Djamena,1,FTTJ,FTTJ,NDJ,,,https://en.wikipedia.org/wiki/N'Djamena_International_Airport,"Ndjamena Hassan Djamous",1050,2022-10-21T12:25:20+00:00
2864,FBSK,large_airport,"Sir Seretse Khama International Airport",-24.555201,25.9182,3299,AF,Botswana,BW,"Gabarone (city)",BW-GA,GA,Gaborone,1,FBSK,FBSK,GBE,,,https://en.wikipedia.org/wiki/Sir_Seretse_Khama_International_Airport,,1000,2022-04-12T18:18:16+00:00
2863,FBMN,medium_airport,"Maun Airport",-19.970491,23.431409,3093,AF,Botswana,BW,"North West District",BW-NW,NW,Maun,1,FBMN,FBMN,MUB,,,https://en.wikipedia.org/wiki/Maun_Airport,,750,2025-03-20T08:39:56+00:00
3080,GCLA,medium_airport,"La Palma Airport",28.626499,-17.7556,107,AF,Spain,ES,"Canary Islands",ES-CN,CN,"Sta Cruz de la Palma, La Palma Island",1,GCLA,GCLA,SPC,,https://www.aena.es/en/la-palma.html,https://en.wikipedia.org/wiki/La_Palma_Airport,,750,2022-11-01T17:27:16+00:00
3099,GLRB,large_airport,"Roberts International Airport",6.23379,-10.3623,31,AF,Liberia,LR,"Margibi County",LR-MG,MG,Monrovia,1,GLRB,GLRB,ROB,,,https://en.wikipedia.org/wiki/Roberts_International_Airport,,1000,2019-01-13T13:02:12+00:00
2868,FCBB,medium_airport,"Maya-Maya Airport",-4.251699924468994,15.253000259399414,1048,AF,"Republic of the Congo",CG,"Pool Department",CG-12,12,Brazzaville,1,FCBB,FCBB,BZV,,,https://en.wikipedia.org/wiki/Maya-Maya_Airport,,750,2008-06-13T14:30:04+00:00
2125,DRRN,large_airport,"Diori Hamani International Airport",13.4815,2.18361,732,AF,Niger,NE,"Niamey Capital District",NE-8,8,Niamey,1,DRRN,DRRN,NIM,,,https://en.wikipedia.org/wiki/Diori_Hamani_International_Airport,,1000,2019-01-13T13:09:10+00:00
2087,DBBB,medium_airport,"Cadjehoun Airport",6.357230186462402,2.384350061416626,19,AF,Benin,BJ,"Atlantique Department",BJ-AQ,AQ,Cotonou,1,DBBB,DBBB,COO,,,https://en.wikipedia.org/wiki/Cadjehoun_Airport,,750,2008-06-13T14:30:04+00:00
2784,FAGM,medium_airport,"Rand Airport",-26.2425,28.151199,5483,AF,"South Africa",ZA,Gauteng,ZA-GT,GT,Johannesburg,0,FAGM,FAGM,QRA,,,https://en.wikipedia.org/wiki/Rand_Airport,,750,2021-05-29T07:44:30+00:00
2966,FOOL,medium_airport,"Libreville Leon M'ba International Airport",0.458600014448,9.412280082699999,39,AF,Gabon,GA,"Estuaire Province",GA-1,1,Libreville,1,FOOL,FOOL,LBV,,http://www.adlgabon.com,https://en.wikipedia.org/wiki/Libreville_International_Airport,,750,2013-11-08T08:55:32+00:00
2144,DXXX,medium_airport,"Lomé–Tokoin International Airport",6.16561,1.25451,72,AF,Togo,TG,"Maritime Region",TG-M,M,Lomé,1,DXXX,DXXX,LFW,,,https://en.wikipedia.org/wiki/Lom%C3%A9%E2%80%93Tokoin_International_Airport,"Gnassingbe Eyadema International Airport",750,2021-01-27T11:28:02+00:00
3066,GABS,large_airport,"Modibo Keita International Airport",12.5335,-7.94994,1247,AF,Mali,ML,"Koulikoro Region",ML-2,2,Bamako,1,GABS,GABS,BKO,,,https://en.wikipedia.org/wiki/Bamako%E2%80%93S%C3%A9nou_International_Airport,"Senou Airport",1050,2019-01-13T13:00:28+00:00
3180,HEBA,medium_airport,"Borj El Arab International Airport",30.93249,29.696437,171,AF,Egypt,EG,"Alexandria Governorate",EG-ALX,ALX,Alexandria,1,HEBA,HEBA,HBE,,,https://en.wikipedia.org/wiki/Borg_El_Arab_Airport,,750,2022-02-13T08:53:02+00:00
2882,FKKD,medium_airport,"Douala International Airport",4.0060801506,9.719479560849999,33,AF,Cameroon,CM,"Littoral Region",CM-LT,LT,Douala,1,FKKD,FKKD,DLA,,,https://en.wikipedia.org/wiki/Douala_International_Airport,,750,2013-08-28T03:51:30+00:00
2795,FAKN,medium_airport,"Kruger Mpumalanga International Airport",-25.3831996918,31.1056003571,2829,AF,"South Africa",ZA,Mpumalanga,ZA-MP,MP,Mpumalanga,1,FAKN,FAKN,MQP,,,https://en.wikipedia.org/wiki/Kruger_Mpumalanga_International_Airport,,750,2013-12-06T23:25:51+00:00
2782,FAGC,medium_airport,"Grand Central Airport",-25.986299514799995,28.1401004791,5325,AF,"South Africa",ZA,Gauteng,ZA-GT,GT,Midrand,0,FAGC,FAGC,GCJ,,,https://en.wikipedia.org/wiki/Grand_Central_Airport,,250,2013-12-06T22:52:19+00:00
2854,FAWB,medium_airport,"Wonderboom Airport",-25.6539,28.224199,4095,AF,"South Africa",ZA,Gauteng,ZA-GT,GT,Pretoria,0,FAWB,FAWB,PRY,,http://www.wonderboomairport.co.za/,https://en.wikipedia.org/wiki/Wonderboom_Airport,,250,2021-05-29T07:43:44+00:00
3170,HBBA,medium_airport,"Bujumbura Melchior Ndadaye International Airport",-3.32402,29.318501,2582,AF,Burundi,BI,"Bujumbura Mairie Province",BI-BM,BM,Bujumbura,1,HBBA,HBBA,BJM,,,https://en.wikipedia.org/wiki/Bujumbura_International_Airport,,750,2021-02-08T17:00:55+00:00
2779,FAEL,medium_airport,"King Phalo Airport",-33.035599,27.825899,435,AF,"South Africa",ZA,"Eastern Cape",ZA-EC,EC,"East London",1,FAEL,FAEL,ELS,,http://www.airports.co.za/home.asp?pid=415,https://en.wikipedia.org/wiki/East_London_Airport,,750,2025-01-25T15:00:05+00:00
2783,FAGG,medium_airport,"George Airport",-34.0056,22.378902,648,AF,"South Africa",ZA,"Western Cape",ZA-WC,WC,George,1,FAGG,FAGG,GRJ,,,https://en.wikipedia.org/wiki/George_Airport,"PW Botha Airport",750,2022-08-18T17:29:59+00:00
3095,GFLL,large_airport,"Lungi International Airport",8.61644,-13.1955,84,AF,"Sierra Leone",SL,"Northern Province",SL-N,N,"Freetown (Lungi-Town)",1,GFLL,GFLL,FNA,,http://www.freetownairport.com/,https://en.wikipedia.org/wiki/Lungi_International_Airport,,1000,2021-04-27T16:51:37+00:00
3247,HJJJ,large_airport,"Juba International Airport",4.87201,31.601101,1513,AF,"South Sudan",SS,"Central Equatoria State",SS-EC,EC,Juba,1,HJJJ,HJJJ,JUB,,,https://en.wikipedia.org/wiki/Juba_Airport,"JIA, HSSJ",1000,2022-01-04T00:23:41+00:00
3153,GVNP,large_airport,"Nelson Mandela International Airport",14.941126,-23.484728,230,AF,"Cape Verde",CV,"Sotavento Islands",CV-S,S,Praia,1,GVNP,GVNP,RAI,,https://www.vinci-airports.cv/aeroporto_asa/aeroporto-internacional-nelson-mandela/,https://en.wikipedia.org/wiki/Francisco_Mendes_International_Airport,"Santiago Island",1000,2024-09-14T19:28:03+00:00
3181,HEBL,medium_airport,"Abu Simbel Airport",22.367657,31.609962,614,AF,Egypt,EG,"Aswan Governorate",EG-ASN,ASN,"Abu Simbel",1,HEBL,HEBL,ABS,,,https://en.wikipedia.org/wiki/Abu_Simbel_Airport,,750,2022-09-28T15:23:43+00:00
3146,GUCY,medium_airport,"Conakry International Airport",9.57689,-13.612,72,AF,Guinea,GN,"Conakry Special Zone",GN-C,C,Conakry,1,GUCY,GUCY,CKY,,http://www.aeroport-conakry.com/aeroport_international_de_conakry.php,https://en.wikipedia.org/wiki/Conakry_International_Airport,"Gbessia International Airport",750,2016-01-28T09:30:07+00:00
3059,FZQA,medium_airport,"Lubumbashi International Airport",-11.5913000107,27.5308990479,4295,AF,"Democratic Republic of the Congo",CD,"Haut-Katanga Province",CD-HK,HK,Lubumbashi,1,FZQA,FZQA,FBM,,,https://en.wikipedia.org/wiki/Lubumbashi_International_Airport,,750,2012-05-06T14:38:49+00:00
2876,FGSL,medium_airport,"Malabo Airport",3.755270004272461,8.708720207214355,76,AF,"Equatorial Guinea",GQ,"Bioko Norte Province",GQ-BN,BN,Malabo,1,FGSL,FGSL,SSG,,,https://en.wikipedia.org/wiki/Malabo_International_Airport,"Fernando Poo",750,2008-06-13T14:30:04+00:00
31899,HCMM,medium_airport,"Aden Adde International Airport",2.0144400596618652,45.3046989440918,29,AF,Somalia,SO,Banaadir,SO-BN,BN,Mogadishu,1,HCMM,HCMM,MGQ,,,https://en.wikipedia.org/wiki/Aden_Adde_International_Airport,HCCM,750,2008-06-13T14:30:04+00:00
2778,ZA-0327,closed,"Durban International Airport",-29.969798,30.950257,33,AF,"South Africa",ZA,Kwazulu-Natal,ZA-NL,NL,Durban,0,,,,,,https://en.wikipedia.org/wiki/Durban_International_Airport,"Louis Botha International Airport, DUR, Durban International Airport, FADN",150,2025-02-25T14:37:59+00:00
325736,GOBD,large_airport,"Blaise Diagne International Airport",14.670878,-17.072829,290,AF,Senegal,SN,"Dakar Region",SN-DK,DK,Dakar,1,GOBD,GOBD,DSS,,http://www.dakaraeroport.com/,https://en.wikipedia.org/wiki/Blaise_Diagne_International_Airport,"diass airport",1000,2025-02-10T17:56:17+00:00
2969,FPST,large_airport,"São Tomé International Airport",0.378175,6.71215,33,AF,"São Tomé and Principe",ST,"Água Grande District",ST-01,01,"São Tomé",1,FPST,FPST,TMS,,,https://en.wikipedia.org/wiki/S%C3%A3o_Tom%C3%A9_International_Airport,,1000,2024-09-14T21:12:30+00:00
3178,EG-0078,closed,"El Nuzha Airport",31.181681,29.94629,-6,AF,Egypt,EG,"Alexandria Governorate",EG-ALX,ALX,Alexandria,0,,,,,,https://en.wikipedia.org/wiki/El_Nouzha_Airport,"Alexandria International Airport, HEAX, ALY",875,2025-02-25T14:38:00+00:00
2873,FEFF,medium_airport,"Bangui M'Poko International Airport",4.39847993850708,18.518800735473633,1208,AF,"Central African Republic",CF,Ombella-M'Poko,CF-MP,MP,Bangui,1,FEFF,FEFF,BGF,,,https://en.wikipedia.org/wiki/Bangui_M'Poko_International_Airport,,750,2009-02-13T10:49:53+00:00
3223,HLLB,medium_airport,"Benina International Airport",32.096802,20.269501,433,AF,Libya,LY,"Benghazi District",LY-BA,BA,Benina,1,HLLB,HLLB,BEN,,,https://en.wikipedia.org/wiki/Benina_International_Airport,"Benghazi, Soluch Airfield",750,2022-09-13T12:34:46+00:00
2071,DAOO,medium_airport,"Oran Es-Sénia (Ahmed Ben Bella) International Airport",35.623901,-0.621183,295,AF,Algeria,DZ,"Oran Province",DZ-31,31,Es-Sénia,1,DAOO,DAOO,ORN,,,https://en.wikipedia.org/wiki/Oran_Es_Senia_Airport,"Es Senia",750,2022-09-13T14:01:35+00:00
2088,DFFD,medium_airport,"Ouagadougou Airport",12.3532,-1.51242,1037,AF,"Burkina Faso",BF,"Kadiogo Province",BF-KAD,KAD,Ouagadougou,1,DFFD,DFFD,OUA,,,https://en.wikipedia.org/wiki/Ouagadougou_Airport,,750,2021-11-21T15:52:51+00:00
2120,DNPO,medium_airport,"Port Harcourt International Airport",5.0154900550842285,6.94959020614624,87,AF,Nigeria,NG,"Rivers State",NG-RI,RI,"Port Harcourt",1,DNPO,DNPO,PHC,,http://www.faannigeria.org/nigeria-airport.php?airport=4,https://en.wikipedia.org/wiki/Port_Harcourt_International_Airport,,750,2009-03-02T11:56:34+00:00
2994,FSPP,medium_airport,"Praslin Island Airport",-4.319256,55.691561,10,AF,Seychelles,SC,"Grand' Anse (Praslin)",SC-14,14,"Praslin Island",1,FSPP,FSPP,PRI,,,https://en.wikipedia.org/wiki/Praslin_Island_Airport,,750,2024-10-24T04:43:21+00:00
2847,FAUP,medium_airport,"Pierre Van Ryneveld Airport",-28.39909935,21.260200500499998,2782,AF,"South Africa",ZA,"Northern Cape",ZA-NC,NC,Upington,1,FAUP,FAUP,UTN,,,https://en.wikipedia.org/wiki/Upington_Airport,,750,2013-12-07T00:23:44+00:00
3038,FYWE,medium_airport,"Eros Airport",-22.612199783325195,17.080400466918945,5575,AF,Namibia,NA,"Khomas Region",NA-KH,KH,Windhoek,1,FYWE,FYWE,ERS,,,https://en.wikipedia.org/wiki/Eros_Airport,,750,2008-06-13T14:30:04+00:00
3037,FYWB,medium_airport,"Walvis Bay Airport",-22.979332,14.647102,299,AF,Namibia,NA,"Erongo Region",NA-ER,ER,Rooikop,1,FYWB,FYWB,WVB,,,https://en.wikipedia.org/wiki/Walvis_Bay_Airport,,500,2025-03-17T03:38:56+00:00
27289,FANS,small_airport,"Nelspruit Airport",-25.5,30.9137992859,2875,AF,"South Africa",ZA,Mpumalanga,ZA-MP,MP,Nelspruit,0,FANS,FANS,NLP,,,https://en.wikipedia.org/wiki/Nelspruit_Airport,,50,2013-12-06T23:27:32+00:00
2772,FABL,medium_airport,"Bram Fischer International Airport",-29.092699,26.302401,4457,AF,"South Africa",ZA,"Free State",ZA-FS,FS,Bloemfontain,1,FABL,FABL,BFN,,,https://en.wikipedia.org/wiki/Bloemfontein_Airport,,750,2020-04-01T17:48:34+00:00
2862,FBKE,medium_airport,"Kasane Airport",-17.832899,25.162399,3289,AF,Botswana,BW,"Chobe District",BW-CH,CH,Kasane,1,FBKE,FBKE,BBK,,,https://en.wikipedia.org/wiki/Kasane_Airport,,750,2022-04-12T18:15:29+00:00
2794,FAKM,medium_airport,"Kimberley Airport",-28.802799224900003,24.7651996613,3950,AF,"South Africa",ZA,"Northern Cape",ZA-NC,NC,Kimberley,1,FAKM,FAKM,KIM,,,https://en.wikipedia.org/wiki/Kimberley_Airport,,750,2013-12-06T22:59:54+00:00
2832,FARG,medium_airport,"Rustenburg Airport",-25.6443004608,27.271099090599996,3700,AF,"South Africa",ZA,North-West,ZA-NW,NW,Rustenburg,0,FARG,,,,,https://en.wikipedia.org/wiki/Rustenburg_Airfield,,250,2012-12-30T09:14:48+00:00
27279,FABS,small_airport,"Brits Airport",-25.532301,27.7759,3756,AF,"South Africa",ZA,North-West,ZA-NW,NW,Brits,0,FABS,,,,,https://en.wikipedia.org/wiki/Brits_Airfield,,50,2024-05-18T15:15:12+00:00
3015,FWCL,medium_airport,"Chileka International Airport",-15.679100036621094,34.9739990234375,2555,AF,Malawi,MW,"Blantyre District",MW-BL,BL,Blantyre,1,FWCL,FWCL,BLZ,,,https://en.wikipedia.org/wiki/Chileka_International_Airport,,750,2008-12-30T09:24:31+00:00
3162,HADR,medium_airport,"Aba Tenna Dejazmach Yilma International Airport",9.624699592590332,41.85419845581055,3827,AF,Ethiopia,ET,"Dire Dawa",ET-DD,DD,"Dire Dawa",1,HADR,HADR,DIR,,,https://en.wikipedia.org/wiki/Aba_Tenna_Dejazmach_Yilma_International_Airport,,750,2008-06-13T14:30:04+00:00
2904,FMCZ,medium_airport,"Dzaoudzi Pamandzi International Airport",-12.809319,45.281815,23,AF,Mayotte,YT,(unassigned),YT-U-A,U-A,Dzaoudzi,1,FMCZ,FMCZ,DZA,,,https://en.wikipedia.org/wiki/Dzaoudzi_Pamandzi_International_Airport,,750,2021-10-14T22:27:16+00:00
3192,HEMA,medium_airport,"Marsa Alam International Airport",25.555548,34.59245,213,AF,Egypt,EG,"Red Sea Governorate",EG-BA,BA,"Marsa Alam",1,HEMA,HEMA,RMF,,http://www.marsa-alam-airport.com,https://en.wikipedia.org/wiki/Marsa_Alam_International_Airport,,750,2022-09-28T15:43:42+00:00
2901,FMCH,medium_airport,"Prince Said Ibrahim International Airport",-11.5337,43.2719,93,AF,Comoros,KM,"Grande Comore (Ngazidja)",KM-G,G,Moroni,1,FMCH,FMCH,HAH,,,https://en.wikipedia.org/wiki/Prince_Said_Ibrahim_International_Airport,Hahaia,750,2016-03-19T21:01:16+00:00
2825,FAPM,medium_airport,"Pietermaritzburg Airport",-29.649000167799997,30.3987007141,2423,AF,"South Africa",ZA,Kwazulu-Natal,ZA-NL,NL,Pietermaritzburg,1,FAPM,FAPM,PZB,,,https://en.wikipedia.org/wiki/Pietermaritzburg_Airport,,750,2013-12-06T23:37:44+00:00
2871,FCPP,medium_airport,"Antonio Agostinho-Neto International Airport",-4.81603,11.8866,55,AF,"Republic of the Congo",CG,"Kouilou Department",CG-5,5,"Pointe Noire",1,FCPP,FCPP,PNR,,,https://en.wikipedia.org/wiki/Agostinho-Neto_International_Airport,"Pointe Noire",750,2021-01-27T10:27:07+00:00
3057,FZNA,medium_airport,"Goma International Airport",-1.66617,29.237929,5089,AF,"Democratic Republic of the Congo",CD,"Nord-Kivu Province",CD-NK,NK,Goma,1,FZNA,FZNA,GOM,,,https://en.wikipedia.org/wiki/Goma_International_Airport,,750,2022-12-21T15:37:33+00:00
2115,DNKN,medium_airport,"Mallam Aminu International Airport",12.0476,8.52462,1562,AF,Nigeria,NG,"Kano State",NG-KN,KN,Kano,1,DNKN,DNKN,KAN,,http://www.faannigeria.org/nigeria-airport.php?airport=2,https://en.wikipedia.org/wiki/Mallam_Aminu_Kano_International_Airport,,750,2021-11-21T15:47:37+00:00
2828,FAPS,medium_airport,"Potchefstroom Airport",-26.670999527,27.0818996429,4520,AF,"South Africa",ZA,North-West,ZA-NW,NW,Potchefstroom,0,FAPS,FAPS,PCF,,,,,250,2012-01-22T12:41:25+00:00
2853,FAVV,medium_airport,"Vereeniging Airport",-26.566400528,27.9608001709,4846,AF,"South Africa",ZA,Gauteng,ZA-GT,GT,Vereeniging,0,FAVV,,,,,,,250,2013-12-07T00:31:20+00:00
2826,FAPN,small_airport,"Pilanesberg International Airport",-25.333799,27.173401,3412,AF,"South Africa",ZA,North-West,ZA-NW,NW,Pilanesberg,0,FAPN,FAPN,NTY,,,https://en.wikipedia.org/wiki/Pilanesberg_International_Airport,,100,2025-02-26T17:49:08+00:00
3224,HLLM,large_airport,"Mitiga International Airport",32.89177,13.287878,36,AF,Libya,LY,"Tripoli District",LY-TB,TB,Tripoli,1,HLLM,HLLM,MJI,,,https://en.wikipedia.org/wiki/Mitiga_International_Airport,"Mellaha Army Airfield, Okba Ben Nafi Air Base, Wheelus Air Force Base",1000,2022-09-13T13:21:20+00:00
3250,HTAR,medium_airport,"Arusha Airport",-3.3677899837493896,36.63330078125,4550,AF,Tanzania,TZ,"Arusha Region",TZ-01,01,Arusha,1,HTAR,HTAR,ARK,,,https://en.wikipedia.org/wiki/Arusha_Airport,,750,2008-11-12T14:28:21+00:00
3202,HHAS,medium_airport,"Asmara International Airport",15.291899681091309,38.910701751708984,7661,AF,Eritrea,ER,"Northern Red Sea Region",ER-SK,SK,Asmara,1,HHAS,HHAS,ASM,,,https://en.wikipedia.org/wiki/Asmara_International_Airport,,750,2008-12-19T20:07:48+00:00
2822,FAPH,medium_airport,"Hendrik Van Eck Airport",-23.937200546299998,31.1553993225,1432,AF,"South Africa",ZA,Limpopo,ZA-NP,NP,Phalaborwa,1,FAPH,FAPH,PHW,,,https://en.wikipedia.org/wiki/Hendrik_Van_Eck_Airport,,750,2013-12-06T23:34:38+00:00
2856,FAWK,medium_airport,"Waterkloof Air Force Base",-25.829999923699997,28.222499847399998,4940,AF,"South Africa",ZA,Gauteng,ZA-GT,GT,Pretoria,0,FAWK,FAWK,WKF,,,https://en.wikipedia.org/wiki/AFB_Waterkloof,AFB,375,2012-12-22T10:44:31+00:00
2850,FAVG,medium_airport,"Virginia Airport",-29.770599,31.058399,20,AF,"South Africa",ZA,Kwazulu-Natal,ZA-NL,NL,Durban,0,FAVG,FAVG,VIR,,,https://en.wikipedia.org/wiki/Virginia_Airport,,250,2024-04-07T15:54:46+00:00
2841,FASZ,medium_airport,"Skukuza Airport",-24.960899353,31.5886993408,1020,AF,"South Africa",ZA,Mpumalanga,ZA-MP,MP,Skukuza,0,FASZ,FASZ,SZK,,,https://en.wikipedia.org/wiki/Skukuza_Airport,,250,2013-12-07T00:12:06+00:00
2837,FASI,small_airport,"Springs Airfield",-26.2494004736,28.3982715607,5340,AF,"South Africa",ZA,Gauteng,ZA-GT,GT,"Del Fouche",0,FASI,,,,,,,150,2014-01-08T08:42:58+00:00
29627,FYSM,small_airport,"Swakopmund Municipal Aerodrome",-22.6619,14.5681,207,AF,Namibia,NA,"Erongo Region",NA-ER,ER,Swakopmund,0,FYSM,FYSM,SWP,,,https://en.wikipedia.org/wiki/Swakopmund_Airport,,150,2024-04-17T22:48:12+00:00
2796,FAKR,small_airport,"Krugersdorp Airport",-26.080826,27.725915,5499,AF,"South Africa",ZA,Gauteng,ZA-GT,GT,Krugersdorp,0,FAKR,,,,http://www.fakr.co.za,,"Jack Taylor",50,2022-03-09T02:08:54+00:00
27295,FASH,small_airport,"Stellenbosch Airport",-33.980983,18.822327,295,AF,"South Africa",ZA,"Western Cape",ZA-WC,WC,Stellenbosch,0,FASH,,,,http://www.stelfly.co.za/,,"Stellenbosch Flying Club",50,2022-08-18T17:42:41+00:00
2855,FAWI,small_airport,"Witbank Airport",-25.832300186199998,29.1919994354,5078,AF,"South Africa",ZA,Mpumalanga,ZA-MP,MP,Witbank,0,FAWI,,,,,,,50,2013-12-07T00:40:26+00:00
323315,GQNO,large_airport,"Nouakchott–Oumtounsy International Airport",18.31,-15.969722,9,AF,Mauritania,MR,"Nouakchott Region",MR-NKC,NKC,Nouakchott,1,GQNO,GQNO,NKC,,,https://en.wikipedia.org/wiki/Nouakchott%E2%80%93Oumtounsy_International_Airport,"Nouakchott, Oumtounsy",1000,2023-12-04T21:08:13+00:00
2970,FQBR,medium_airport,"Beira Airport",-19.7964,34.9076,33,AF,Mozambique,MZ,"Sofala Province",MZ-S,S,Beira,1,FQBR,FQBR,BEW,,,https://en.wikipedia.org/wiki/Beira_Airport,,750,2025-03-21T00:11:24+00:00
3112,GMML,medium_airport,"Hassan I Airport",27.142467,-13.224947,207,AF,"Western Sahara (disputed territory)",EH,(unassigned),EH-U-A,U-A,"El Aaiún",1,GMML,GMML,EUN,,,https://en.wikipedia.org/wiki/Hassan_Airport,"GSAI, Laâyoune",750,2022-06-20T08:04:03+00:00
3022,FXMM,medium_airport,"Moshoeshoe I International Airport",-29.462299,27.5525,5348,AF,Lesotho,LS,"Maseru District",LS-A,A,Mazenod,1,FXMM,FXMM,MSU,,,https://en.wikipedia.org/wiki/Moshoeshoe_I_International_Airport,,750,2025-03-19T07:31:54+00:00
2980,FQNP,medium_airport,"Nampula Airport",-15.105600357055664,39.28179931640625,1444,AF,Mozambique,MZ,"Nampula Province",MZ-N,N,Nampula,1,FQNP,FQNP,APL,,,https://en.wikipedia.org/wiki/Nampula_Airport,,750,2009-07-08T21:46:53+00:00
2981,FQPB,medium_airport,"Pemba Airport",-12.993302,40.524867,331,AF,Mozambique,MZ,"Cabo Delgado Province",MZ-P,P,Pemba,1,FQPB,FQPB,POL,,,https://en.wikipedia.org/wiki/Pemba_Airport,"Porto Amelia",750,2025-03-17T10:38:04+00:00
3246,HSPN,medium_airport,"Port Sudan New International Airport",19.4335994720459,37.234100341796875,135,AF,Sudan,SD,"Red Sea State",SD-26,26,"Port Sudan",1,HSPN,HSPN,PZU,,,https://en.wikipedia.org/wiki/Port_Sudan_New_International_Airport,,750,2008-08-11T09:32:53+00:00
3151,GVBA,medium_airport,"Rabil Airport",16.136499404907227,-22.888900756835938,69,AF,"Cape Verde",CV,"Barlavento Islands",CV-B,B,Rabil,1,GVBA,GVBA,BVC,,,https://en.wikipedia.org/wiki/Rabil_Airport,"Boa Vista Island",750,2009-08-31T18:56:30+00:00
2986,FQVL,medium_airport,"Vilankulo Airport",-22.018400192260742,35.31330108642578,46,AF,Mozambique,MZ,"Inhambane Province",MZ-I,I,Vilanculo,1,FQVL,FQVL,VNX,,,https://en.wikipedia.org/wiki/Vilankulo_Airport,"Vilanculos Airport",750,2009-07-08T22:08:31+00:00
2877,FHAW,medium_airport,"RAF Ascension Island",-7.9696,-14.3937,278,AF,"Saint Helena, Ascension and Tristan da Cunha",SH,Ascension,SH-AC,AC,"Cat Hill",1,FHAW,FHAW,ASI,,http://www.raf.mod.uk/organisation/stations.cfm?selectStation=9DEB5257-FDEF-6850-8B1CFF5050616CC1#cgi.script_name#,https://en.wikipedia.org/wiki/RAF_Ascension_Island,"Wideawake Airfield, Ascension Island Auxiliary Field",500,2021-05-29T10:04:56+00:00
3006,FVKB,medium_airport,"Kariba International Airport",-16.5198,28.885,1706,AF,Zimbabwe,ZW,"Mashonaland West Province",ZW-MW,MW,Kariba,0,FVKB,FVKB,KAB,,https://www.caaz.co.zw/kariba-airport,https://en.wikipedia.org/wiki/Kariba_Airport,,250,2022-02-10T09:51:59+00:00
3135,MR-0013,closed,"Nouakchott International Airport",18.09754,-15.948222,13,AF,Mauritania,MR,"Nouakchott Region",MR-NKC,NKC,Nouakchott,0,,,,,,https://en.wikipedia.org/wiki/Nouakchott_International_Airport,"NKC, GQNN",150,2025-02-25T14:38:00+00:00
27288,FAKT,small_airport,"Kitty Hawk Airport",-25.860000610399997,28.4500007629,4619,AF,"South Africa",ZA,Gauteng,ZA-GT,GT,Boschkop,0,FAKT,,,,http://www.fakt.co.za,,,50,2013-10-01T13:56:04+00:00
29953,FAHT,small_airport,"Hoedspruit Airport",-24.351699829101562,30.949399948120117,1801,AF,"South Africa",ZA,Limpopo,ZA-NP,NP,Hoedspruit,0,FAHT,,,,,,,50,2008-08-13T13:26:48+00:00
2829,FAPY,small_airport,"Parys Airport",-26.889299392700195,27.503400802612305,4740,AF,"South Africa",ZA,"Free State",ZA-FS,FS,Parys,0,FAPY,,,,,,,50,2008-08-13T13:22:23+00:00
3107,GMFO,medium_airport,"Oujda Angads Airport",34.789558,-1.926041,1535,AF,Morocco,MA,"L'Oriental Region",MA-02,02,"Ahl Angad",1,GMFO,GMFO,OUD,,,https://en.wikipedia.org/wiki/Angads_Airport,"Oujda Airfield",750,2022-09-13T14:05:13+00:00
2060,DABB,medium_airport,"Annaba Rabah Bitat Airport",36.826781,7.81334,16,AF,Algeria,DZ,"Annaba Province",DZ-23,23,Annaba,1,DABB,DABB,AAE,,,https://en.wikipedia.org/wiki/Rabah_Bitat_Airport,"Les Salines Airport, El Mellah Airport, Annabah",750,2022-09-13T13:43:09+00:00
3164,HAGN,medium_airport,"Gondar Airport",12.5199,37.433998,6449,AF,Ethiopia,ET,"Amhara Region",ET-AM,AM,Azezo,1,HAGN,HAGN,GDQ,,,https://en.wikipedia.org/wiki/Gondar_Airport,"Atse Tewodros,, Emperor Tewodros",750,2022-09-25T21:11:08+00:00
3000,FVBU,medium_airport,"Joshua Mqabuko Nkomo International Airport",-20.017401,28.617901,4359,AF,Zimbabwe,ZW,"Bulawayo Metropolitan Province",ZW-BU,BU,Bulawayo,1,FVJN,,BUQ,,,https://en.wikipedia.org/wiki/Joshua_Mqabuko_Nkomo_International_Airport,,750,2018-12-04T15:46:09+00:00
2061,DABC,medium_airport,"Mohamed Boudiaf International Airport",36.2760009765625,6.620389938354492,2265,AF,Algeria,DZ,"Constantine Province",DZ-25,25,Constantine,1,DABC,DABC,CZL,,,https://en.wikipedia.org/wiki/Mohamed_Boudiaf_International_Airport,,750,2008-06-13T14:30:04+00:00
2895,FLMF,medium_airport,"Mfuwe Airport",-13.258899688720703,31.936599731445312,1853,AF,Zambia,ZM,"Eastern Province",ZM-03,03,Mfuwe,1,FLMF,FLMF,MFU,,,https://en.wikipedia.org/wiki/Mfuwe_Airport,,750,2008-09-15T08:34:08+00:00
2920,FMNN,medium_airport,"Fascene Airport",-13.3121,48.3148,36,AF,Madagascar,MG,Antsiranana,MG-D,D,"Nosy Be",1,FMNN,FMNN,NOS,,,https://en.wikipedia.org/wiki/Fascene_Airport,,750,2022-08-10T11:17:55+00:00
2831,FARB,medium_airport,"Richards Bay Airport",-28.740999221800003,32.0920982361,109,AF,"South Africa",ZA,Kwazulu-Natal,ZA-NL,NL,"Richards Bay",1,FARB,FARB,RCB,,,https://en.wikipedia.org/wiki/Richards_Bay_Airport,,750,2013-12-07T00:00:27+00:00
3226,HLLS,medium_airport,"Sabha Airport",26.992452,14.466162,1427,AF,Libya,LY,"Sabha District",LY-SB,SB,Sabha,1,HLLS,HLLS,SEB,,,https://en.wikipedia.org/wiki/Sabha_Airport,Sebha,750,2022-09-14T10:26:58+00:00
2056,DAAT,medium_airport,"Aguenar – Hadj Bey Akhamok Airport",22.811501,5.45108,4518,AF,Algeria,DZ,"Tamanrasset Province",DZ-11,11,Tamanrasset,1,DAAT,DAAT,TMR,,,https://en.wikipedia.org/wiki/Tamanrasset_Airport,,750,2023-01-26T08:36:23+00:00
2067,DAOF,medium_airport,"Tindouf Airport",27.7003993988,-8.167099952700001,1453,AF,Algeria,DZ,"Tindouf Province",DZ-37,37,Tindouf,1,DAOF,DAOF,TIN,,,https://en.wikipedia.org/wiki/Tindouf_Airport,,750,2010-08-30T11:55:47+00:00
2890,FKYS,medium_airport,"Yaoundé Nsimalen International Airport",3.72256,11.5533,2278,AF,Cameroon,CM,"Centre Region",CM-CE,CE,Yaoundé,1,FKYS,FKYS,NSI,,,https://en.wikipedia.org/wiki/Yaoundé_Nsimalen_International_Airport,,750,2025-03-02T19:16:12+00:00
3205,HKEL,medium_airport,"Eldoret International Airport",0.4044579863548279,35.23889923095703,6941,AF,Kenya,KE,"Rift Valley Province",KE-700,700,Eldoret,1,HKEL,HKEL,EDL,,http://www.kenyaairports.co.ke/kaa/airports/eldoret/,https://en.wikipedia.org/wiki/Eldoret_International_Airport,HKED,575,2009-02-08T10:33:45+00:00
3241,HSFS,medium_airport,"El Fasher Airport",13.614899635314941,25.324600219726562,2393,AF,Sudan,SD,"North Darfur State",SD-02,02,"El Fasher",1,HSFS,HSFS,ELF,,,https://en.wikipedia.org/wiki/El_Fasher_Airport,"El Fashir Airport",500,2009-07-09T08:46:27+00:00
31988,HKML,medium_airport,"Malindi Airport",-3.2293100357055664,40.10169982910156,80,AF,Kenya,KE,"Coast Province",KE-300,300,Malindi,1,HKML,HKML,MYD,,http://www.kenyaairports.co.ke/kaa/airports/malindi/,https://en.wikipedia.org/wiki/Malindi_Airport,,500,2009-02-08T10:20:46+00:00
3027,FYKM,medium_airport,"Katima Mulilo Airport",-17.634258,24.176688,3144,AF,Namibia,NA,"Zambezi Region",NA-CA,CA,Mpacha,1,FYKM,FYKM,MPA,,,https://en.wikipedia.org/wiki/Katima_Mulilo_Airport,FYMP,500,2024-03-09T15:22:58+00:00
3244,HSNN,medium_airport,"Nyala Airport",12.0535,24.9562,2106,AF,Sudan,SD,"South Darfur State",SD-11,11,Nyala,1,HSNN,HSNN,UYL,,,https://en.wikipedia.org/wiki/Nyala_Airport,,500,2021-10-16T05:17:33+00:00
2839,FASS,medium_airport,"Sishen Airport",-27.6486,22.9993,3848,AF,"South Africa",ZA,"Northern Cape",ZA-NC,NC,Sishen,1,FASS,FASS,SIS,,,,,500,2024-05-16T11:29:20+00:00
2835,FASC,medium_airport,"Secunda Airport",-26.52409935,29.170099258399997,5250,AF,"South Africa",ZA,Mpumalanga,ZA-MP,MP,Secunda,0,FASC,FASC,ZEC,,,,,250,2013-12-07T00:07:22+00:00
2773,FABM,small_airport,"Bethlehem Airport",-28.2484,28.3361,5561,AF,"South Africa",ZA,"Free State",ZA-FS,FS,Bethlehem,0,FABM,,,,,https://en.wikipedia.org/wiki/Bethlehem_Airport,,50,2024-05-18T15:14:46+00:00
2843,FATP,small_airport,"New Tempe Airport",-29.035109,26.16268,4547,AF,"South Africa",ZA,"Free State",ZA-FS,FS,Bloemfontein,0,FATP,,,,,,,50,2022-09-04T10:52:26+00:00
27282,FAWN,small_airport,"Cape Winelands Airport",-33.77,18.74,399,AF,"South Africa",ZA,"Western Cape",ZA-WC,WC,Durbanville,0,FAWN,,,,https://capewinelands.aero/,https://en.wikipedia.org/wiki/Cape_Winelands_Airport,"Fisantekraal Airport, FAFK",50,2023-03-25T10:55:38+00:00
41188,FATA,small_airport,"Tedderfield Air Park",-26.352037738499998,27.9681630135,5198,AF,"South Africa",ZA,Gauteng,ZA-GT,GT,Tedderfield,0,FATA,,,,,,,50,2014-01-10T02:44:02+00:00
3159,HAAM,medium_airport,"Arba Minch Airport",6.03939,37.5905,3901,AF,Ethiopia,ET,"Southern Nations, Nationalities, and Peoples' Region",ET-SN,SN,"Arba Minch",1,HAAM,HAAM,AMH,,,https://en.wikipedia.org/wiki/Arba_Minch_Airport,"Gantar, Minghi",750,2023-04-11T00:32:45+00:00
2106,DNBE,medium_airport,"Benin Airport",6.316979885101318,5.5995001792907715,258,AF,Nigeria,NG,"Edo State",NG-ED,ED,Benin,1,DNBE,DNBE,BNI,,http://www.faannigeria.org/nigeria-airport.php?airport=22,https://en.wikipedia.org/wiki/Benin_Airport,,750,2009-03-02T12:07:00+00:00
3097,GGOV,medium_airport,"Osvaldo Vieira International Airport",11.894800186157227,-15.65369987487793,129,AF,Guinea-Bissau,GW,"Bissau Autonomous Sector",GW-BS,BS,Bissau,1,GGOV,GGOV,OXB,,,https://en.wikipedia.org/wiki/Osvaldo_Vieira_International_Airport,,750,2009-02-22T09:12:07+00:00
2936,FNCA,medium_airport,"Cabinda Airport",-5.59699010848999,12.188400268554688,66,AF,Angola,AO,"Cabinda Province",AO-CAB,CAB,Cabinda,1,FNCA,FNCA,CAB,,,https://en.wikipedia.org/wiki/Cabinda_Airport,,750,2009-03-10T17:17:26+00:00
3123,GOGS,medium_airport,"Cap Skirring Airport",12.39533,-16.748,52,AF,Senegal,SN,"Ziguinchor Region",SN-ZG,ZG,"Cap Skirring",1,GOGS,GOGS,CSK,,,https://en.wikipedia.org/wiki/Cap_Skirring_Airport,,750,2017-05-05T14:42:55+00:00
3110,GMMH,medium_airport,"Dakhla Airport",23.7183,-15.932,36,AF,"Western Sahara (disputed territory)",EH,(unassigned),EH-U-A,U-A,Dakhla,1,GMMH,GMMH,VIL,,,https://en.wikipedia.org/wiki/Dakhla_Airport,"GSVO, Villa Cisneros, Dajla, Oued Ed-Dahab",750,2016-06-19T12:11:56+00:00
2972,FQIN,medium_airport,"Inhambane Airport",-23.8764,35.408501,30,AF,Mozambique,MZ,"Inhambane Province",MZ-I,I,Inhambane,1,FQIN,FQIN,INH,,,https://en.wikipedia.org/wiki/Inhambane_Airport,,750,2021-01-26T23:25:36+00:00
3063,FZUA,medium_airport,"Kananga Airport",-5.90005,22.4692,2139,AF,"Democratic Republic of the Congo",CD,"Kasaï-Central Province",CD-KC,KC,Kananga,1,FZUA,FZUA,KGA,,,https://en.wikipedia.org/wiki/Kananga_Airport,,750,2022-12-20T15:00:15+00:00
3052,FZIC,medium_airport,"Bangoka International Airport",0.481638997793,25.3379993439,1417,AF,"Democratic Republic of the Congo",CD,"Tshopo Province",CD-TO,TO,Kisangani,1,FZIC,FZIC,FKI,,,https://en.wikipedia.org/wiki/Bangoka_International_Airport,,750,2010-08-30T12:52:06+00:00
3208,HKKI,medium_airport,"Kisumu Airport",-0.0861390009522438,34.72890090942383,3734,AF,Kenya,KE,"Nyanza Province",KE-600,600,Kisumu,1,HKKI,HKKI,KIS,,http://www.kenyaairports.co.ke/kaa/airports/kisumu/,https://en.wikipedia.org/wiki/Kisumu_Airport,,750,2009-02-08T10:38:02+00:00
2952,FNUB,medium_airport,"Lubango Airport",-14.924699783325195,13.574999809265137,5778,AF,Angola,AO,"Huíla Province",AO-HUI,HUI,Lubango,1,FNUB,FNUB,SDD,,,https://en.wikipedia.org/wiki/Lubango_Airport,,750,2009-03-10T17:17:27+00:00
3248,HSSM,medium_airport,"Malakal Airport",9.55897,31.652201,1291,AF,"South Sudan",SS,"Upper Nile State",SS-NU,NU,Malakal,1,HJMK,,MAK,,,https://en.wikipedia.org/wiki/Malakal_Airport,HSSM,750,2022-04-20T11:11:09+00:00
2872,FDMS,medium_airport,"Matsapha Airport",-26.528999,31.307501,2075,AF,Eswatini,SZ,"Manzini Region",SZ-MA,MA,Manzini,0,FDMS,FDMS,MTS,,http://www.eswacaa.co.sz/airports/matsapha/index.php,https://en.wikipedia.org/wiki/Matsapha_Airport,,750,2020-06-04T12:56:08+00:00
2809,FAMG,medium_airport,"Margate Airport",-30.8574008942,30.343000412,495,AF,"South Africa",ZA,Kwazulu-Natal,ZA-NL,NL,Margate,1,FAMG,FAMG,MGH,,,https://en.wikipedia.org/wiki/Margate_Airport,,750,2013-12-06T23:20:17+00:00
3093,GEML,medium_airport,"Melilla Airport",35.2798,-2.95626,156,AF,Spain,ES,"Melilla (city)",ES-ML,ML,Melilla,1,GEML,GEML,MLN,,https://www.aena.es/en/melilla.html,https://en.wikipedia.org/wiki/Melilla_Airport,,750,2022-11-01T17:32:57+00:00
3117,GMMZ,medium_airport,"Ouarzazate Airport",30.9391002655,-6.909430027010001,3782,AF,Morocco,MA,"Drâa-Tafilalet Region",MA-08,08,Ouarzazate,1,GMMZ,GMMZ,OZZ,,,https://en.wikipedia.org/wiki/Ouarzazate_Airport,,750,2010-08-31T22:08:55+00:00
2963,FOOG,medium_airport,"Port Gentil Airport",-0.7117390036582947,8.754380226135254,13,AF,Gabon,GA,"Ogooué-Maritime Province",GA-8,8,"Port Gentil",1,FOOG,FOOG,POG,,,https://en.wikipedia.org/wiki/Port-Gentil_International_Airport,,750,2008-12-19T20:05:46+00:00
2823,FAPI,medium_airport,"Pietersburg Municipal Airport",-23.9260997772,29.4843997955,4354,AF,"South Africa",ZA,Limpopo,ZA-NP,NP,Polokwane,1,FAPI,,,,,,PTG,650,2012-12-29T14:28:58+00:00
3217,HKWJ,medium_airport,"Wajir Airport",1.73324,40.091599,770,AF,Kenya,KE,"North-Eastern Province",KE-500,500,Wajir,1,HKWJ,HKWJ,WJR,,,https://en.wikipedia.org/wiki/Wajir_Airport,,550,2018-09-16T03:49:59+00:00
3111,GMMI,medium_airport,"Essaouira-Mogador Airport",31.397499,-9.68167,384,AF,Morocco,MA,"Marrakech-Safi Region",MA-07,07,Essaouira,1,GMMI,GMMI,ESU,,,https://en.wikipedia.org/wiki/Essaouira-Mogador_Airport,,500,2021-11-22T13:59:11+00:00
3210,HKLK,medium_airport,"Lokichogio Airport",4.20412,34.348202,2074,AF,Kenya,KE,"Rift Valley Province",KE-700,700,Lokichogio,0,HKLK,HKLK,LKG,,http://www.kenyaairports.co.ke/kaa/airports/loki/,https://en.wikipedia.org/wiki/Lokichogio_Airport,,500,2025-03-22T22:58:52+00:00
2821,FAPG,medium_airport,"Plettenberg Bay Airport",-34.08816,23.328723,465,AF,"South Africa",ZA,"Western Cape",ZA-WC,WC,"Plettenberg Bay",0,FAPG,FAPG,PBZ,,,https://en.wikipedia.org/wiki/Plettenberg_Bay_Aerodrome,,500,2025-02-05T15:43:05+00:00
2780,FAEO,medium_airport,"Ermelo Airport",-26.4955997467041,29.979799270629883,5700,AF,"South Africa",ZA,Mpumalanga,ZA-MP,MP,Ermelo,0,FAEO,,,,,,,250,2008-08-13T13:23:12+00:00
2793,FAKD,medium_airport,"P C Pelser Airport",-26.871099,26.718,4444,AF,"South Africa",ZA,North-West,ZA-NW,NW,Klerksdorp,0,FAKD,FAKD,KXE,,,https://en.wikipedia.org/wiki/Klerksdorp_Airport,,250,2024-04-07T15:51:58+00:00
2849,FAVB,medium_airport,"Vryburg Airport",-26.9824008942,24.7287998199,3920,AF,"South Africa",ZA,North-West,ZA-NW,NW,Vyrburg,0,FAVB,FAVB,VRU,,,https://en.wikipedia.org/wiki/Vryburg_Airport,,250,2012-12-30T08:43:26+00:00
3078,GCGM,small_airport,"La Gomera Airport",28.0296,-17.2146,716,AF,Spain,ES,"Canary Islands",ES-CN,CN,"Alajero, La Gomera Island",1,GCGM,GCGM,GMZ,,https://www.aena.es/en/la-gomera.html,https://en.wikipedia.org/wiki/La_Gomera_Airport,,150,2022-11-01T17:28:20+00:00
2790,FAHS,small_airport,"Hoedspruit Air Force Base Airport",-24.368600845299998,31.0487003326,1743,AF,"South Africa",ZA,Limpopo,ZA-NP,NP,Hoedspruit,1,FAHS,FAHS,HDS,,,https://en.wikipedia.org/wiki/Hoedspruit_Airport#Eastgate_Airport,,150,2013-12-06T22:50:14+00:00
29842,GCLB,small_airport,"El Berriel Aeroc Airport",27.782499,-15.5072,20,AF,Spain,ES,"Canary Islands",ES-CN,CN,"Gran Canaria Island",0,GCLB,,,,https://www.gclb.info/,https://es.wikipedia.org/wiki/Aer%C3%B3dromo_Maspalomas_-_El_Berriel,,50,2024-05-16T09:48:55+00:00
27284,FAHG,small_airport,"Heidelburg Airport",-26.51,28.389999,5089,AF,"South Africa",ZA,Gauteng,ZA-GT,GT,Heidelburg,0,FAHG,,,,,https://en.wikipedia.org/wiki/Heidelberg_Airport,,50,2024-05-18T15:17:11+00:00
41301,FADX,small_airport,"Delta 200 Airstrip",-33.6494935368,18.471879959099997,220,AF,"South Africa",ZA,"Western Cape",ZA-WC,WC,Koeberg,0,FADX,,,,,,,50,2012-04-20T07:49:13+00:00
2817,FANY,small_airport,"Nylstroom Airfield",-24.686100006103516,28.434900283813477,3900,AF,"South Africa",ZA,Limpopo,ZA-NP,NP,Modimolle,0,FANY,,,,,,,50,2009-09-01T07:44:35+00:00
3067,GAGO,medium_airport,"Gao Airport",16.2484,-0.005456,870,AF,Mali,ML,"Gao Region",ML-7,7,,1,GAGO,GAGO,GAQ,,,https://en.wikipedia.org/wiki/Gao_International_Airport,,750,2022-09-26T04:21:06+00:00
2996,FTTC,medium_airport,"Abeche Airport",13.847,20.844299,1788,AF,Chad,TD,Ouaddaï,TD-OD,OD,Abeche,1,FTTC,FTTC,AEH,,,https://en.wikipedia.org/wiki/Ab%C3%A9ch%C3%A9_Airport,,750,2021-04-09T16:59:23+00:00
2075,DAUA,medium_airport,"Touat Cheikh Sidi Mohamed Belkebir Airport",27.837601,-0.186414,919,AF,Algeria,DZ,"Adrar Province",DZ-01,01,Adrar,1,DAUA,DAUA,AZR,,,https://en.wikipedia.org/wiki/Touat_Cheikh_Sidi_Mohamed_Belkebir_Airport,,750,2021-02-23T14:09:06+00:00
3114,GMMW,medium_airport,"Nador Al Aaroui International Airport",34.9888,-3.02821,574,AF,Morocco,MA,"L'Oriental Region",MA-02,02,"Al Aaroui",1,GMMW,GMMW,NDR,,,https://en.wikipedia.org/wiki/Nador_International_Airport,"Al Aroui International Airport, Arwi",750,2022-09-13T14:09:23+00:00
3119,GMTA,medium_airport,"Cherif Al Idrissi Airport",35.177101,-3.83952,95,AF,Morocco,MA,"Tanger-Tétouan-Al Hoceïma Region",MA-01,01,"Al Hoceima",0,GMTA,GMTA,AHU,,,https://en.wikipedia.org/wiki/Cherif_Al_Idrissi_Airport,,750,2025-02-20T18:12:47+00:00
3161,HABD,medium_airport,"Bahir Dar Airport",11.6081,37.321602,5978,AF,Ethiopia,ET,"Amhara Region",ET-AM,AM,"Bahir Dar",1,HABD,HABD,BJR,,,https://en.wikipedia.org/wiki/Bahir_Dar_Airport,"Dejazmach Belay Zeleke",750,2022-09-25T21:11:55+00:00
2875,FGBT,medium_airport,"Bata Airport",1.90547,9.80568,13,AF,"Equatorial Guinea",GQ,"Litoral Province",GQ-LI,LI,Bata,1,FGBT,FGBT,BSG,,,https://en.wikipedia.org/wiki/Bata_Airport,,750,2021-04-09T15:25:41+00:00
2971,FQCH,medium_airport,"Chimoio Airport",-19.15130043029785,33.42900085449219,2287,AF,Mozambique,MZ,"Manica Province",MZ-B,B,Chimoio,1,FQCH,FQCH,VPY,,,https://en.wikipedia.org/wiki/Chimoio_Airport,,750,2009-07-08T17:04:51+00:00
2051,DAAJ,medium_airport,"Djanet Inedbirene Airport",24.292801,9.45244,3176,AF,Algeria,DZ,"Djanet Province",DZ-56,56,Djanet,1,DAAJ,DAAJ,DJG,,,https://en.wikipedia.org/wiki/Djanet_Inedbirene_Airport,"Tiska Djanet Airport",750,2022-09-27T14:24:09+00:00
2078,DAUG,medium_airport,"Noumérat - Moufdi Zakaria Airport",32.384102,3.79411,1512,AF,Algeria,DZ,"Ghardaïa Province",DZ-47,47,"El Atteuf",1,DAUG,DAUG,GHA,,,https://en.wikipedia.org/wiki/Noumerate_Airport,Ghardaïa,750,2022-09-26T03:28:05+00:00
2077,DAUE,medium_airport,"El Golea Airport",30.580732,2.861595,1306,AF,Algeria,DZ,"El Menia Province",DZ-50,50,"El Menia",1,DAUE,DAUE,ELG,,,https://en.wikipedia.org/wiki/El_Golea_Airport,,750,2022-09-27T14:43:54+00:00
3105,GMFK,medium_airport,"Moulay Ali Cherif Airport",31.9475002289,-4.39833021164,3428,AF,Morocco,MA,"Drâa-Tafilalet Region",MA-08,08,Errachidia,1,GMFK,GMFK,ERH,,,https://en.wikipedia.org/wiki/Moulay_Ali_Cherif_Airport,,750,2010-08-31T22:08:27+00:00
2967,FOON,medium_airport,"M'Vengue El Hadj Omar Bongo Ondimba International Airport",-1.6561599969863892,13.437999725341797,1450,AF,Gabon,GA,"Haut-Ogooué Province",GA-2,2,Franceville,1,FOON,FOON,MVB,,,https://en.wikipedia.org/wiki/M'Vengue_El_Hadj_Omar_Bongo_Ondimba_International_Airport,,750,2008-12-19T20:05:50+00:00
3171,HCMH,medium_airport,"Egal International Airport",9.513207,44.082389,4471,AF,Somalia,SO,"Maroodi Jeex",SO-WO,WO,Hargeisa,1,HCMH,HCMH,HGA,,,https://en.wikipedia.org/wiki/Hargeisa_International_Airport,"Madaarka Caalamiga a ee Cigaal, مطار هرجيسا إيغال الدولية‎)",750,2021-11-21T16:02:12+00:00
2079,DAUH,medium_airport,"Hassi Messaoud-Oued Irara Krim Belkacem Airport",31.673,6.14044,463,AF,Algeria,DZ,"Ouargla Province",DZ-30,30,"Hassi Messaoud",1,DAUH,DAUH,HME,,,https://en.wikipedia.org/wiki/Oued_Irara_Airport,,750,2021-02-23T14:55:24+00:00
2939,FNHU,medium_airport,"Nova Lisboa Airport",-12.808899879455566,15.760499954223633,5587,AF,Angola,AO,"Huambo Province",AO-HUA,HUA,Huambo,1,FNHU,FNHU,NOV,,,https://en.wikipedia.org/wiki/Nova_Lisboa_Airport,"Nova Lisbo Airport",750,2009-08-28T21:32:02+00:00
2110,DNIB,medium_airport,"Ibadan Airport",7.362460136413574,3.97832989692688,725,AF,Nigeria,NG,"Oyo State",NG-OY,OY,Ibadan,1,DNIB,DNIB,IBA,,http://www.faannigeria.org/nigeria-airport.php?airport=7,https://en.wikipedia.org/wiki/Ibadan_Airport,,750,2009-03-02T12:05:41+00:00
2080,DAUI,medium_airport,"In Salah Airport",27.250999,2.51202,896,AF,Algeria,DZ,"In Salah Province",DZ-57,57,"In Salah",1,DAUI,DAUI,INZ,,,https://en.wikipedia.org/wiki/In_Salah_Airport,,750,2022-09-27T14:28:27+00:00
3061,FZRF,medium_airport,"Kalemie Airport",-5.87556,29.25,2569,AF,"Democratic Republic of the Congo",CD,"Tanganyika Province",CD-TA,TA,Kalemie,1,FZRF,FZRF,FMI,,,https://en.wikipedia.org/wiki/Kalemie_Airport,,750,2022-12-20T15:17:39+00:00
2093,DGSI,medium_airport,"Kumasi Airport",6.714560031890869,-1.5908199548721313,942,AF,Ghana,GH,"Ashanti Region",GH-AH,AH,Kumasi,1,DGSI,DGSI,KMS,,,https://en.wikipedia.org/wiki/Kumasi_Airport,,750,2009-06-06T09:27:04+00:00
2812,FAMM,medium_airport,"Mmabatho International Airport",-25.798400878900004,25.548000335699996,4181,AF,"South Africa",ZA,North-West,ZA-NW,NW,Mafeking,1,FAMM,FAMM,MBD,,,https://en.wikipedia.org/wiki/Mmabatho_International_Airport,Mafikeng,750,2013-12-06T23:10:52+00:00
3098,GLMR,medium_airport,"Spriggs Payne Airport",6.28906,-10.7587,25,AF,Liberia,LR,"Montserrado County",LR-MO,MO,Monrovia,1,GLMR,GLMR,MLW,,,https://en.wikipedia.org/wiki/Spriggs_Payne_Airport,,750,2024-04-17T22:39:00+00:00
2848,FAUT,medium_airport,"K. D. Matanzima Airport",-31.546363184900002,28.6733551025,2400,AF,"South Africa",ZA,"Eastern Cape",ZA-EC,EC,Mthatha,1,FAUT,FAUT,UTT,,,https://en.wikipedia.org/wiki/K.D._Matanzima_Airport,Umtata,750,2014-01-08T08:07:18+00:00
3031,FYOA,medium_airport,"Ondangwa Airport",-17.878201,15.9526,3599,AF,Namibia,NA,"Oshana Region",NA-ON,ON,Ondangwa,1,FYOA,FYOA,OND,,,https://en.wikipedia.org/wiki/Ondangwa_Airport,,750,2016-02-19T20:21:18+00:00
2827,FAPP,medium_airport,"Polokwane International Airport",-23.845269,29.458615,4076,AF,"South Africa",ZA,Limpopo,ZA-NP,NP,Polokwane,1,FAPP,FAPP,PTG,,,https://en.wikipedia.org/wiki/Polokwane_International_Airport,"FAPB,  AFB Pietersburg,  Pietersburg International Airport, Gateway International Airport",750,2016-04-17T15:41:02+00:00
2879,FIMR,medium_airport,"Sir Charles Gaetan Duval Airport",-19.7577,63.361,95,AF,Mauritius,MU,"Rodrigues Island",MU-RO,RO,"Port Mathurin",1,FIMR,FIMR,RRG,,,https://en.wikipedia.org/wiki/Rodrigues_Island_Airport,"Plaine Corail",750,2025-02-26T21:36:52+00:00
3069,GAMB,medium_airport,"Mopti Ambodédjo International Airport",14.5128,-4.07956,906,AF,Mali,ML,"Mopti Region",ML-5,5,Sévaré,1,GAMB,GAMB,MZI,,,https://en.wikipedia.org/wiki/Mopti_Airport,"Ambodedjo Airport",750,2022-01-24T05:35:03+00:00
2984,FQTT,medium_airport,"Chingozi Airport",-16.104799270629883,33.640201568603516,525,AF,Mozambique,MZ,"Tete Province",MZ-T,T,Tete,1,FQTT,FQTT,TET,,,https://en.wikipedia.org/wiki/Chingozi_Airport,,750,2009-07-08T22:04:14+00:00
3071,GATB,medium_airport,"Timbuktu Airport",16.730499,-3.00758,863,AF,Mali,ML,"Gao Region",ML-7,7,Timbuktu,1,GATB,GATB,TOM,,,https://en.wikipedia.org/wiki/Timbuktu_Airport,"Timbuctoo Airport, Tombouctou Airport, Tumbutu Airport, Tombouktou Airport",750,2022-06-19T20:52:25+00:00
32066,HKNL,medium_airport,"Nanyuki Airport",-0.062399,37.041008,6250,AF,Kenya,KE,"Central Province",KE-200,200,Nanyuki,1,HKNL,,NYK,,,https://en.wikipedia.org/wiki/Nanyuki_Airport,,500,2025-02-20T23:15:35+00:00
32192,DNSU,medium_airport,"Warri Airport",5.59821,5.8187,242,AF,Nigeria,NG,"Delta State",NG-DE,DE,Okpe,1,DNSU,DNSU,QRW,,http://www.faannigeria.org/nigeria-airport.php?airport=25,https://en.wikipedia.org/wiki/Warri_Airport,"Osubi Airport, Shell",500,2025-03-19T07:49:44+00:00
3196,HEPS,medium_airport,"Port Said International Airport",31.279285,32.240582,10,AF,Egypt,EG,"Port Said Governorate",EG-PTS,PTS,"Port Said",0,HEPS,HEPS,PSD,,http://en.wikipedia.org/wiki/Port_Said_Airport,https://en.wikipedia.org/wiki/Port_Said_Airport,"El Gamil",275,2022-12-14T14:21:07+00:00
2999,FTTY,medium_airport,"Faya-Largeau Airport",17.917101,19.111099,771,AF,Chad,TD,Borkou,TD-BO,BO,Faya-Largeau,0,FTTY,FTTY,FYT,,,https://en.wikipedia.org/wiki/Faya-Largeau_Airport,,250,2024-08-07T17:20:21+00:00
3056,FZMA,medium_airport,"Bukavu Kavumu Airport",-2.30898,28.8088,5643,AF,"Democratic Republic of the Congo",CD,"Sud-Kivu Province",CD-SK,SK,Kamakombe,0,FZMA,FZMA,BKY,,,https://en.wikipedia.org/wiki/Kavumu_Airport,,250,2024-05-16T19:53:05+00:00
3173,HCMK,medium_airport,"Kismayo Airport",-0.377353,42.459202,49,AF,Somalia,SO,"Lower Juba",SO-JH,JH,Kismayo,0,HCMK,HCMK,KMU,,,https://en.wikipedia.org/wiki/Kismayo_Airport,"Kisimayu, كيسمايو المطار",250,2021-01-26T20:45:16+00:00
2815,FAMU,medium_airport,"Mkuze Airport",-27.626100540161133,32.0443000793457,400,AF,"South Africa",ZA,Kwazulu-Natal,ZA-NL,NL,Mkuze,0,FAMU,FAMU,MZQ,,,,,250,2008-08-13T13:26:14+00:00
2816,FANC,medium_airport,"Newcastle Airport",-27.7705993652,29.976900100699996,4074,AF,"South Africa",ZA,Kwazulu-Natal,ZA-NL,NL,Newcastle,0,FANC,FANC,NCS,,,https://en.wikipedia.org/wiki/Newcastle_Airport_(South_Africa),,250,2013-12-06T23:29:42+00:00
2834,FASB,medium_airport,"Springbok Airport",-29.689300537109375,17.939599990844727,2690,AF,"South Africa",ZA,"Northern Cape",ZA-NC,NC,Springbok,0,FASB,FASB,SBU,,,,,250,2008-08-13T13:24:32+00:00
3133,GQNI,small_airport,"Néma Airport",16.622,-7.3166,745,AF,Mauritania,MR,"Hodh ech Chargui Region",MR-01,01,Néma,0,GQNI,GQNI,EMN,,,https://en.wikipedia.org/wiki/N%C3%A9ma_Airport,,150,2020-01-24T08:37:17+00:00
319714,HCMW,small_airport,"Garowe Airport",8.457942,48.567407,1465,AF,Somalia,SO,Nugal,SO-NU,NU,Garowe,1,HCGR,,GGR,,,https://en.wikipedia.org/wiki/Garowe_Airport,"HCMW, Puntland, General Mohamed Abshir",100,2022-04-21T10:46:44+00:00
31623,HSMK,small_airport,"Rumbek Airport",6.831074,29.669073,1378,AF,"South Sudan",SS,"Lakes State",SS-LK,LK,Rumbek,1,HJRB,,RBX,,,https://en.wikipedia.org/wiki/Rumbek_Airport,HSMK,100,2022-04-20T11:02:26+00:00
299614,ZA-0105,small_airport,"Aviators Paradise Field",-25.69389,27.782507,3800,AF,"South Africa",ZA,Gauteng,ZA-GT,GT,,0,FAAP,,,,http://www.aviatorsparadise.co.za/,,,50,2024-04-10T17:37:52+00:00
309043,ZA-0110,small_airport,"Panorama Airfield",-26.329316,28.068469,5000,AF,"South Africa",ZA,Gauteng,ZA-GT,GT,Alberton,0,,,,PAN,,,,50,2019-08-28T04:23:02+00:00
29759,GMMT,small_airport,"Casablanca Tit Mellil Airport",33.5975,-7.465,322,AF,Morocco,MA,"Casablanca-Settat Region",MA-06,06,Casablanca,0,GMMT,,,,,https://en.wikipedia.org/wiki/Casablanca_Tit_Mellil_Airport,,50,2021-01-27T13:22:35+00:00
2791,FAHV,small_airport,"Gariep Dam Airport",-30.562111,25.529343,4176,AF,"South Africa",ZA,"Free State",ZA-FS,FS,Gariepdam,0,FAHV,,,,,,,50,2022-03-08T13:39:36+00:00
30990,HSGN,small_airport,"Geneina Airport",13.481882,22.467119,2651,AF,Sudan,SD,"West Darfur State",SD-12,12,Geneina,0,HSGN,HSGN,EGN,,,https://en.wikipedia.org/wiki/Geneina_Airport,,50,2021-08-29T14:52:08+00:00
3167,HALL,small_airport,"Lalibela Airport",11.975225,38.980198,6506,AF,Ethiopia,ET,"Amhara Region",ET-AM,AM,"Girany Amba",0,HALL,HALL,LLI,,,https://en.wikipedia.org/wiki/Lalibela_Airport,,50,2025-03-09T11:48:09+00:00
29919,FAGL,small_airport,"Groblersdal Kob Airport",-25.186899,29.403299,3051,AF,"South Africa",ZA,Limpopo,ZA-NP,NP,Groblersdal,0,FAGL,,,,,,,50,2022-02-21T21:05:45+00:00
3002,FVCP,small_airport,"Charles Prince Airport",-17.75160026550293,30.924699783325195,4845,AF,Zimbabwe,ZW,"Harare Metropolitan Province",ZW-HA,HA,Harare,0,FVCP,,,,,https://en.wikipedia.org/wiki/Charles_Prince_Airport,,50,2008-06-13T14:30:04+00:00
30453,ZA-0340,small_airport,"Baragwanath Airfield",-26.348697,27.779546,5420,AF,"South Africa",ZA,Gauteng,ZA-GT,GT,Hiltonia,0,FASY,,,5407,,,"Sylerfontein, Lenasia, Westonaria",50,2025-03-09T05:32:35+00:00
3100,GMAA,small_airport,"Inezgane Airport",30.381399,-9.54631,89,AF,Morocco,MA,"Souss-Massa Region",MA-09,09,Inezgane,0,GMAA,,,,,https://en.wikipedia.org/wiki/Inezgane_Airport,"Agadir-Inezgane Airport, Inezgane Air Base",50,2021-01-27T13:17:37+00:00
2802,FALI,small_airport,"Lichtenburg Airport",-26.17569923400879,26.184600830078125,4875,AF,"South Africa",ZA,North-West,ZA-NW,NW,Lichtenburg,0,FALI,,,,,,,50,2008-08-13T13:27:39+00:00
42595,KE-6112,small_airport,"Angama Airport",-1.27156,34.955513,6180,AF,Kenya,KE,"Rift Valley Province",KE-700,700,"Maasai Mara",0,HKOM,,ANA,,,https://en.wikipedia.org/wiki/Angama_Mara_Airport,"Olkurruk Mara",50,2024-04-07T06:12:20+00:00
41285,FAMH,small_airport,"Musina(Messina) Airport",-22.355672,29.9862,1904,AF,"South Africa",ZA,Limpopo,ZA-NP,NP,Musina,0,FAMH,,MEZ,,,,,50,2023-11-04T14:01:17+00:00
31596,HKUK,small_airport,"Ukunda Airstrip",-4.29333,39.571098,98,AF,Kenya,KE,"Coast Province",KE-300,300,Ukunda,0,HKUK,HKUK,UKA,,http://www.kenyaairports.co.ke/kaa/airports/airstrips/ukunda_intro.html,https://en.wikipedia.org/wiki/Ukunda_Airport,"HKKA,6643",50,2018-05-09T06:44:41+00:00
27298,FAWA,small_airport,"Warmbaths Airport",-24.90999984741211,28.299999237060547,3655,AF,"South Africa",ZA,Limpopo,ZA-NP,NP,Warmbaths,0,FAWA,,,,,,,50,2008-08-13T13:26:20+00:00
3177,HEAT,medium_airport,"Asyut International Airport",27.050818,31.016309,748,AF,Egypt,EG,"Asyut Governorate",EG-AST,AST,Asyut,1,HEAT,HEAT,ATZ,,,https://en.wikipedia.org/wiki/Assiut_Airport,Asyut,750,2022-02-06T07:37:41+00:00
2076,DAUB,medium_airport,"Biskra - Mohamed Khider Airport",34.793301,5.73823,289,AF,Algeria,DZ,"Biskra Province",DZ-07,07,Biskra,1,DAUB,DAUB,BSK,,,https://en.wikipedia.org/wiki/Biskra_Airport,,750,2021-02-23T14:30:22+00:00
2097,DIBK,medium_airport,"Bouaké Airport",7.7388,-5.07367,1230,AF,"Côte d'Ivoire",CI,"Vallée du Bandama District",CI-VB,VB,Bouaké,1,DIBK,DIBK,BYK,,,https://en.wikipedia.org/wiki/Bouak%C3%A9_Airport,,750,2021-04-09T15:00:09+00:00
3054,FZKA,medium_airport,"Bunia Airport",1.565743,30.220685,4045,AF,"Democratic Republic of the Congo",CD,"Ituri Province",CD-IT,IT,Bunia,1,FZKA,FZKA,BUX,,,https://en.wikipedia.org/wiki/Bunia_Airport,,750,2022-12-20T15:04:38+00:00
3239,HSDN,medium_airport,"Dongola Airport",19.153900146499996,30.430099487299998,772,AF,Sudan,SD,"Northern State",SD-01,01,Dongola,1,HSDN,HSDN,DOG,,,https://en.wikipedia.org/wiki/Dongola_Airport,,750,2012-02-06T00:05:01+00:00
3079,GCHI,medium_airport,"El Hierro Airport",27.8148,-17.8871,103,AF,Spain,ES,"Canary Islands",ES-CN,CN,"El Hierro Island",1,GCHI,GCHI,VDE,,https://www.aena.es/en/el-hierro.html,https://en.wikipedia.org/wiki/El_Hierro_Airport,"Hierro,El Hierro",750,2022-11-01T17:28:48+00:00
3245,HSOB,medium_airport,"El-Obeid Airport",13.1532,30.2327,1927,AF,Sudan,SD,"North Kurdufan State",SD-09,09,El-Obeid,1,HSOB,HSOB,EBD,,,https://en.wikipedia.org/wiki/El_Obeid_Airport,Al-Ubayyid,750,2022-11-22T18:37:05+00:00
2860,FBFT,medium_airport,"P G Matante Intl",-21.15914,27.468545,3283,AF,Botswana,BW,"Francistown (city)",BW-FR,FR,Francistown,1,FBPM,,FRW,,https://www.caab.co.bw/p-g-matante-international-airport/,https://en.wikipedia.org/wiki/Francistown_Airport,FBFT,750,2022-04-16T11:36:52+00:00
3221,HLGT,medium_airport,"Ghat Airport",25.1455993652,10.142600059500001,2296,AF,Libya,LY,"Ghat District",LY-GT,GT,Ghat,1,HLGT,HLGT,GHT,,,https://en.wikipedia.org/wiki/Ghat_Airport,,750,2010-09-06T17:42:14+00:00
2114,DNKA,medium_airport,"Kaduna Airport",10.696000099182129,7.320109844207764,2073,AF,Nigeria,NG,"Kaduna State",NG-KD,KD,Kaduna,1,DNKA,DNKA,KAD,,http://www.faannigeria.org/nigeria-airport.php?airport=10,https://en.wikipedia.org/wiki/Kaduna_Airport,,750,2009-03-02T11:58:49+00:00
3058,FZOA,medium_airport,"Kindu Airport",-2.91917991638,25.915399551399997,1630,AF,"Democratic Republic of the Congo",CD,"Maniema Province",CD-MA,MA,Kindu,1,FZOA,FZOA,KND,,,https://en.wikipedia.org/wiki/Kindu_Airport,,750,2010-08-30T12:54:07+00:00
3029,FYLZ,medium_airport,"Luderitz Airport",-26.687400817871094,15.242899894714355,457,AF,Namibia,NA,"ǁKaras Region",NA-KA,KA,Luderitz,1,FYLZ,FYLZ,LUD,,,https://en.wikipedia.org/wiki/L%C3%BCderitz_Airport,,750,2008-10-21T18:21:08+00:00
2116,DNMA,medium_airport,"Maiduguri International Airport",11.855299949645996,13.080900192260742,1099,AF,Nigeria,NG,"Borno State",NG-BO,BO,Maiduguri,1,DNMA,DNMA,MIU,,http://www.faannigeria.org/nigeria-airport.php?airport=14,https://en.wikipedia.org/wiki/Maiduguri_International_Airport,,750,2009-03-02T12:01:34+00:00
2808,FAMD,medium_airport,"Malamala Airport",-24.816866,31.544085,1124,AF,"South Africa",ZA,Mpumalanga,ZA-MP,MP,Malamala,0,FAMD,FAMD,AAM,,,https://en.wikipedia.org/wiki/Mala_Mala_Airport,,750,2025-02-05T01:55:35+00:00
2883,FKKL,medium_airport,"Salak Airport",10.451399803161621,14.257399559020996,1390,AF,Cameroon,CM,"Far North Region",CM-EN,EN,Maroua,1,FKKL,FKKL,MVR,,,https://en.wikipedia.org/wiki/Salak_Airport,,750,2008-08-09T21:32:12+00:00
3064,FZWA,medium_airport,"Mbuji Mayi Airport",-6.121240139010001,23.569000244099996,2221,AF,"Democratic Republic of the Congo",CD,"Kasaï-Oriental Province",CD-KE,KE,"Mbuji Mayi",1,FZWA,FZWA,MJM,,,https://en.wikipedia.org/wiki/Mbuji_Mayi_Airport,,750,2010-08-30T12:57:05+00:00
2946,FNMO,medium_airport,"Welwitschia Mirabilis International Airport",-15.2612,12.1468,210,AF,Angola,AO,"Namibe Province",AO-NAM,NAM,Moçâmedes,1,FNMO,FNMO,MSZ,,,https://en.wikipedia.org/wiki/Welwitschia_Mirabilis_Airport,"Moçâmedes, Namibe, Yuri Gagarin",750,2025-03-22T11:46:13+00:00
3257,HTMW,medium_airport,"Mwanza Airport",-2.4444899559020996,32.932701110839844,3763,AF,Tanzania,TZ,"Mwanza Region",TZ-18,18,Mwanza,1,HTMW,HTMW,MWZ,,,https://en.wikipedia.org/wiki/Mwanza_Airport,,750,2008-11-12T14:29:10+00:00
2897,FLND,medium_airport,"Peter Zuze Air Force Base",-12.997222,28.663889,4170,AF,Zambia,ZM,"Copperbelt Province",ZM-08,08,Ndola,1,FLND,FLND,,,,https://en.wikipedia.org/wiki/Peter_Zuze_Air_Force_Base,"NLA, Ndola Airport",750,2024-04-14T18:43:10+00:00
2085,DAUU,medium_airport,"Ain Beida Airport",31.9172,5.41278,492,AF,Algeria,DZ,"Ouargla Province",DZ-30,30,Ouargla,1,DAUU,DAUU,OGX,,,https://en.wikipedia.org/wiki/Ain_Beida_Airport,"Ain el Beida, Sedrata Airfield",750,2021-03-08T17:20:16+00:00
2968,FPPR,medium_airport,"Principe Airport",1.66294,7.41174,591,AF,"São Tomé and Principe",ST,"Autonomous Region of Principe",ST-P,P,"São Tomé & Príncipe",1,FPPR,FPPR,PCP,,,https://en.wikipedia.org/wiki/Pr%C3%ADncipe_Airport,,750,2021-04-09T16:58:29+00:00
2091,DGLE,medium_airport,"Tamale Airport",9.55718994140625,-0.8632140159606934,553,AF,Ghana,GH,"Northern Region",GH-NP,NP,Tamale,1,DGLE,DGLE,TML,,,https://en.wikipedia.org/wiki/Tamale_Airport,,750,2009-06-06T09:31:08+00:00
3102,GMAT,medium_airport,"Tan Tan Airport",28.448200225830078,-11.161299705505371,653,AF,Morocco,MA,"Guelmim-Oued Noun Region",MA-10,10,"Tan Tan",1,GMAT,GMAT,TTA,,,https://en.wikipedia.org/wiki/Tan_Tan_Airport,"Plage Blanche Airport",750,2009-04-15T19:27:06+00:00
2084,DAUT,medium_airport,"Timimoun Airport",29.237101,0.276033,1027,AF,Algeria,DZ,"Timimoun Province",DZ-54,54,Timimoun,1,DAUT,DAUT,TMX,,,https://en.wikipedia.org/wiki/Timimoun_Airport,,750,2022-09-27T14:36:08+00:00
2142,DTTZ,medium_airport,"Tozeur Nefta International Airport",33.939701080322266,8.110560417175293,287,AF,Tunisia,TN,"Tozeur Governorate",TN-72,72,Tozeur,1,DTTZ,DTTZ,TOE,,,https://en.wikipedia.org/wiki/Nefta_Airport,,750,2009-06-25T16:27:49+00:00
335334,HESX,medium_airport,"Sphinx International Airport",30.108078,30.889252,482,AF,Egypt,EG,"Giza Governorate",EG-GZ,GZ,"Al Jiza",1,HESX,,SPX,,,https://en.wikipedia.org/wiki/Sphinx_International_Airport,,500,2023-03-10T14:54:17+00:00
2137,DTTG,medium_airport,"Gabès Matmata International Airport",33.733691,9.91941,407,AF,Tunisia,TN,"Gabès Governorate",TN-81,81,Gabès,1,DTTG,DTTG,GAE,,,https://en.wikipedia.org/wiki/Gab%C3%A8s_-_Matmata_International_Airport,,500,2022-01-28T14:19:12+00:00
3193,HEMM,medium_airport,"Marsa Matruh International Airport",31.325464,27.221716,75,AF,Egypt,EG,"Matruh Governorate",EG-MT,MT,"Marsa Matruh",1,HEMM,HEMM,MUH,,,https://en.wikipedia.org/wiki/Mersa_Matruh_Airport,,500,2024-06-13T12:55:15+00:00
31594,HKMS,medium_airport,"Mara Serena Lodge Airstrip",-1.406111,35.008057,5200,AF,Kenya,KE,"Rift Valley Province",KE-700,700,"Masai Mara",1,HKMS,,MRE,,,https://en.wikipedia.org/wiki/Mara_Serena_Airport,6100,500,2016-05-24T21:16:33+00:00
3168,HAMK,medium_airport,"Alula Aba Nega Airport",13.4674,39.533501,7396,AF,Ethiopia,ET,"Tigray Region",ET-TI,TI,Mekele,1,HAMK,HAMK,MQX,,,https://en.wikipedia.org/wiki/Alula_Aba_Airport,,500,2025-03-09T11:49:40+00:00
3035,FYRU,medium_airport,"Rundu Airport",-17.956499099731,19.719400405884,3627,AF,Namibia,NA,"Kavango East Region",NA-KE,KE,Rundu,1,FYRU,FYRU,NDU,,,"http://ourairports.com/airports/FYRU/#lat=-17.956499099731445,lon=19.71940040588379,zoom=13,type=Satellite,airport=FYRU",,500,2015-09-11T21:32:33+00:00
3120,GMTN,medium_airport,"Sania Ramel Airport",35.594299,-5.32002,10,AF,Morocco,MA,"Tanger-Tétouan-Al Hoceïma Region",MA-01,01,Tétouan,1,GMTN,,TTU,,,https://en.wikipedia.org/wiki/Sania_Ramel_Airport,"Saniat R'mel, Saniet R'mel",500,2023-04-11T01:50:46+00:00
3003,FVCZ,medium_airport,"Buffalo Range Airport",-21.008101,31.5786,1421,AF,Zimbabwe,ZW,"Masvingo Province",ZW-MV,MV,Chiredzi,0,FVCZ,FVCZ,BFO,,https://www.caaz.co.zw/buffalo-range-airport,https://en.wikipedia.org/wiki/Buffalo_Range_Airport,,275,2022-02-10T09:33:06+00:00
3013,FVTL,medium_airport,"Gweru - Thornhill Air Base",-19.436718,29.861945,4680,AF,Zimbabwe,ZW,"Midlands Province",ZW-MI,MI,Gweru,0,FVTL,FVTL,GWE,,,https://en.wikipedia.org/wiki/Gweru-Thornhill_Air_Base,,275,2022-01-31T22:54:59+00:00
300781,DNAS,medium_airport,"Asaba International Airport",6.204167,6.665278,305,AF,Nigeria,NG,"Delta State",NG-DE,DE,Asaba,0,DNAS,DNAS,ABB,,,https://en.wikipedia.org/wiki/Asaba_International_Airport,Onitsha,250,2021-10-06T17:12:30+00:00
3137,GQPA,medium_airport,"Atar International Airport",20.506799697875977,-13.04319953918457,734,AF,Mauritania,MR,"Adrar Region",MR-07,07,Atar,0,GQPA,GQPA,ATR,,,https://en.wikipedia.org/wiki/Atar_International_Airport,,250,2009-06-13T16:14:27+00:00
27302,IBL,medium_airport,"Indigo Bay Lodge Airport",-21.708,35.452801,20,AF,Mozambique,MZ,"Inhambane Province",MZ-I,I,"Bazaruto Island",0,,,IBL,,,https://en.wikipedia.org/wiki/Indigo_Bay_Lodge_Airport,,250,2016-06-02T08:26:25+00:00
2935,FNBG,medium_airport,"Benguela 17th of September Airport",-12.609,13.4037,118,AF,Angola,AO,"Benguela Province",AO-BGU,BGU,Benguela,0,FNBG,FNBG,BUG,,,https://en.wikipedia.org/wiki/Benguela_Airport,"Aeroporto 17 de Setembro, Gen. V. Deslandes Airport",250,2025-03-21T13:08:26+00:00
2771,FABE,medium_airport,"Bisho Airport",-32.897099,27.2791,1950,AF,"South Africa",ZA,"Eastern Cape",ZA-EC,EC,Bisho,0,FABE,FABE,BIY,,,https://en.wikipedia.org/wiki/Bhisho_Airport,,250,2024-04-07T15:50:36+00:00
3258,HTPE,medium_airport,"Pemba Airport",-5.25726,39.811401,80,AF,Tanzania,TZ,"Tanga Region",TZ-25,25,"Chake Chake",0,HTPE,HTPE,PMA,,,https://en.wikipedia.org/wiki/Pemba_Airport_(Tanzania),"Chake Chake, Karume, Thabit Kombo Jecha, Wawi",250,2024-04-29T19:40:18+00:00
3179,HEAZ,medium_airport,"Almaza Air Force Base",30.091702,31.359739,246,AF,Egypt,EG,"Cairo Governorate",EG-C,C,"El Nozha",0,HEAZ,,,,,https://en.wikipedia.org/wiki/Almaza_Air_Base,,250,2024-07-19T12:58:11+00:00
3014,FVWN,medium_airport,"Hwange National Park Airport",-18.6299,27.021,3543,AF,Zimbabwe,ZW,"Matabeleland North Province",ZW-MN,MN,"Gwayi River Farms",0,FVWN,FVWN,HWN,,,https://en.wikipedia.org/wiki/Hwange_National_Park_Airport,,250,2025-03-21T13:21:20+00:00
3124,GOOK,medium_airport,"Kaolack Airport",14.146900177001953,-16.051300048828125,26,AF,Senegal,SN,"Fatick Region",SN-FK,FK,Kaolack,0,GOOK,GOOK,KLC,,,https://en.wikipedia.org/wiki/Kaolack_Airport,,250,2009-04-01T13:55:44+00:00
3116,GMMY,medium_airport,"Kenitra Air Base",34.298901,-6.59588,16,AF,Morocco,MA,"Rabat-Salé-Kénitra Region",MA-04,04,Kenitra,0,GMMP,,NNA,,,https://en.wikipedia.org/wiki/Kenitra_Air_Base,"Craw Field, Naval Air Station Port Lyautey",250,2023-05-12T18:53:18+00:00
2082,DAUL,medium_airport,"Laghouat - Molay Ahmed Medeghri Airport",33.7644,2.92834,2510,AF,Algeria,DZ,"Laghouat Province",DZ-03,03,Laghouat,0,DAUL,DAUL,LOO,,,https://en.wikipedia.org/wiki/L%27Mekrareg_Airport,,250,2024-01-18T18:17:30+00:00
3041,FZAB,medium_airport,"Ndolo Airport",-4.32666015625,15.327500343323,915,AF,"Democratic Republic of the Congo",CD,"Kinshasa Province",CD-KN,KN,N'dolo,0,FZAB,FZAB,NLO,,,https://en.wikipedia.org/wiki/N%27Dolo_Airport,"N'Dolo Airport",250,2015-12-13T20:57:05+00:00
2356,HECP,medium_airport,"Capital International Airport",30.074293,31.84296,761,AF,Egypt,EG,"Cairo Governorate",EG-C,C,"New Cairo",0,HECP,,CCE,,http://www.avit.com.eg/index.php/projects/item/138-katameya-airport,https://en.wikipedia.org/wiki/Capital_International_Airport_(Egypt),HECP,250,2022-01-14T15:20:37+00:00
2838,FASK,medium_airport,"Swartkop Air Force Base",-25.8097,28.1646,4780,AF,"South Africa",ZA,Gauteng,ZA-GT,GT,Pretoria,0,FASK,,,,,https://en.wikipedia.org/wiki/AFB_Swartkop,,250,2024-07-02T16:53:41+00:00
2865,FBSN,medium_airport,"Sua Pan Airport",-20.5534,26.115801,2985,AF,Botswana,BW,"Sowa (town)",BW-ST,ST,Sowa,0,FBSN,FBSN,SXN,,,https://en.wikipedia.org/wiki/Sua_Pan_Airport,,250,2022-04-12T18:27:06+00:00
2102,DIYO,medium_airport,"Yamoussoukro Airport",6.9031701088,-5.36558008194,699,AF,"Côte d'Ivoire",CI,"Yamoussoukro (autonomous district)",CI-YM,YM,Yamoussoukro,0,DIYO,DIYO,ASK,,,https://en.wikipedia.org/wiki/Yamoussoukro_Airport,,250,2012-11-10T11:44:41+00:00
30792,HCMF,small_airport,"Bosaso / Bender Qassim International Airport",11.275235,49.139231,3,AF,Somalia,SO,Bari,SO-BR,BR,Bosaso,1,HCMF,HCMF,BSA,,,https://en.wikipedia.org/wiki/Bosaso_Airport,,150,2024-06-07T08:17:32+00:00
32454,HTKA,small_airport,"Kigoma Airport",-4.8862,29.6709,2700,AF,Tanzania,TZ,"Xigoma Region",TZ-08,08,Kigoma,1,HTKA,HTKA,TKQ,,,https://en.wikipedia.org/wiki/Kigoma_Airport,,150,2011-10-06T19:44:36+00:00
31944,HLMS,small_airport,"Misrata International Airport",32.325001,15.061,60,AF,Libya,LY,"Misurata District",LY-MI,MI,Misrata,1,HLMS,HLMS,MRA,,,https://en.wikipedia.org/wiki/Misrata_Airport,"Misratah, Misurata",150,2022-09-13T13:08:16+00:00
3042,FZAG,small_airport,"Muanda Airport",-5.930637,12.351334,89,AF,"Democratic Republic of the Congo",CD,"Kongo-Central Province",CD-BC,BC,Muanda,0,FZAG,FZAG,MNB,,,https://en.wikipedia.org/wiki/Muanda_Airport,,150,2024-04-17T22:44:29+00:00
2857,FAWM,small_airport,"Welkom Airport",-27.996825,26.663334,4421,AF,"South Africa",ZA,"Free State",ZA-FS,FS,Welkom,0,FAWM,FAWM,WEL,,,,,150,2024-04-03T17:31:54+00:00
30012,FLKS,small_airport,"Kasama Airport",-10.210169,31.123045,4541,AF,Zambia,ZM,"Northern Province",ZM-05,05,Kasama,1,FLKS,FLKS,KAA,,,https://en.wikipedia.org/wiki/Kasama_Airport,,100,2024-05-20T16:43:47+00:00
318444,FHSH,small_airport,"Saint Helena Airport",-15.957725,-5.645943,1017,AF,"Saint Helena, Ascension and Tristan da Cunha",SH,"Saint Helena",SH-SH,SH,Longwood,1,FHSH,FHSH,HLE,,http://sthelenaairport.com/,https://en.m.wikipedia.org/wiki/Saint_Helena_Airport#,,100,2022-02-26T13:22:34+00:00
29694,GMMD,small_airport,"Beni Mellal Airport",32.401895,-6.315905,1694,AF,Morocco,MA,"Béni Mellal-Khénifra Region",MA-05,05,"Oulad Yaich",0,GMMD,GMMD,BEM,,http://ww.onda.ma,https://en.wikipedia.org/wiki/Beni_Mellal_Airport,,100,2025-02-20T18:09:57+00:00
32283,HTSN,small_airport,"Seronera Airport",-2.45806,34.822498,5080,AF,Tanzania,TZ,"Mara Region",TZ-13,13,Seronera,1,HTSN,HTSN,SEU,,,https://en.wikipedia.org/wiki/Seronera_Airstrip,,100,2024-05-11T10:46:54+00:00
31553,SD-0025,closed,"Azaza Airport",14.121428,35.311861,1640,AF,Sudan,SD,"Al Qadarif State",SD-06,06,"Al Qadarif",0,,,,,,,"HSGF, HSGF, GSU",50,2025-02-25T14:49:23+00:00
27278,FABW,small_airport,"Beaufort West Airport",-32.29999923706055,22.670000076293945,2941,AF,"South Africa",ZA,"Western Cape",ZA-WC,WC,"Beaufort West",0,FABW,,,,,,,50,2008-08-13T13:28:34+00:00
30780,FZNP,small_airport,"Beni Airport",0.575,29.4739,3517,AF,"Democratic Republic of the Congo",CD,"Nord-Kivu Province",CD-NK,NK,Beni,0,FZNP,FZNP,BNC,,,https://en.wikipedia.org/wiki/Beni_Airport,,50,2018-05-01T17:32:43+00:00
31615,HSBR,small_airport,"Bor Airport",6.191942,31.600408,1394,AF,"South Sudan",SS,"Jonglei State",SS-JG,JG,Bor,0,HJBR,,,,,https://en.wikipedia.org/wiki/Bor_Airport_(Sudan),HSBR,50,2022-04-21T12:02:53+00:00
2770,FABB,small_airport,"Brakpan Airport",-26.23859977722168,28.301799774169922,5300,AF,"South Africa",ZA,Gauteng,ZA-GT,GT,Brakpan,0,FABB,,,,,,,50,2008-08-13T13:22:40+00:00
41291,ZA-0086,small_airport,"Aero Den Airport",-25.726667404174805,27.739721298217773,4050,AF,"South Africa",ZA,North-West,ZA-NW,NW,Brits,0,,,,,,,,50,2008-08-13T13:27:48+00:00
312691,ZA-0120,small_airport,"Morningstar Airfield",-33.758944,18.548195,200,AF,"South Africa",ZA,"Western Cape",ZA-WC,WC,"Cape Town",0,,,,,http://www.wcmc.co.za,,,50,2021-01-27T02:17:49+00:00
41190,FARA,small_airport,"Petit Airport",-26.0845963451,28.390386581399998,5460,AF,"South Africa",ZA,Gauteng,ZA-GT,GT,Daveyton,0,FARA,,,,,,,50,2014-01-08T07:10:30+00:00
30886,FSDR,small_airport,"Desroches Airport",-5.6967,53.6558,10,AF,Seychelles,SC,"Outer Islands",SC-26,26,"Desroches Island",0,FSDR,FSDR,DES,,,https://en.wikipedia.org/wiki/Desroches_Airport,,50,2024-10-24T11:15:44+00:00
29846,FAER,small_airport,"Ellisras Matimba Airport",-23.726699829101562,27.68829917907715,2799,AF,"South Africa",ZA,Limpopo,ZA-NP,NP,Ellisras,0,FAER,FAER,ELL,,,,,50,2008-08-13T13:27:01+00:00
2786,FAGT,small_airport,"Grahamstown Airport",-33.284698486328125,26.49810028076172,2135,AF,"South Africa",ZA,"Eastern Cape",ZA-EC,EC,Grahamstown,0,FAGT,,,,,,,50,2008-08-13T13:20:35+00:00
2797,FAKS,small_airport,"Kroonstad Airport",-27.660601,27.3158,4700,AF,"South Africa",ZA,"Free State",ZA-FS,FS,Kroonstad,0,FAKS,,,,,https://en.wikipedia.org/wiki/Kroonstad_Airport,,50,2024-05-18T15:18:12+00:00
2807,FAMB,small_airport,"Middelburg Airport",-25.684799194335938,29.440200805664062,4886,AF,"South Africa",ZA,Mpumalanga,ZA-MP,MP,Middelburg,0,FAMB,,,,,,,50,2008-08-13T13:23:42+00:00
30164,FAMO,small_airport,"Mossel Bay Airport",-34.158746,22.055676,531,AF,"South Africa",ZA,"Western Cape",ZA-WC,WC,"Mossel Bay",0,FAMO,FAMO,MZY,,http://www.mosselbayaero.com/wmenu.php,,,50,2022-08-18T17:30:43+00:00
41273,ZA-0337,closed,"Potgietersrus Airport",-24.233334,28.983334,3500,AF,"South Africa",ZA,Limpopo,ZA-NP,NP,Potgietersus,0,,,,,,,"""Potties"", Potgietersrus Mine, FAQR",50,2025-02-25T14:49:57+00:00
41261,FARO,small_airport,"Rooiberg Airport",-24.7777888889,27.7523361111,3811,AF,"South Africa",ZA,Limpopo,ZA-NP,NP,Rooiberg,0,FARO,,,,,,,50,2013-07-20T05:00:28+00:00
30504,FAUH,small_airport,"Uitenhage Airport",-33.785301208496094,25.38330078125,289,AF,"South Africa",ZA,"Eastern Cape",ZA-EC,EC,Uitenhage,0,FAUH,,,,,,,50,2008-08-13T13:20:32+00:00
41288,FAVE,small_airport,"Ventersdorp Airport",-26.300899505615234,26.814199447631836,4917,AF,"South Africa",ZA,North-West,ZA-NW,NW,Ventersdorp,0,FAVE,,,,,,,50,2008-08-13T13:27:37+00:00
30538,FAVU,small_airport,"Volksrust Airport",-27.37689971923828,29.860000610351562,5610,AF,"South Africa",ZA,Mpumalanga,ZA-MP,MP,Volksrust,0,FAVU,,,,,,,50,2008-08-13T13:22:59+00:00
27299,FAWD,small_airport,"Wolmeransstad Airport",-27.170000076293945,25.979999542236328,4513,AF,"South Africa",ZA,North-West,ZA-NW,NW,Wolmeransstad,0,FAWD,,,,,,,50,2008-08-13T13:27:25+00:00
32135,GQPZ,small_airport,"Tazadit Airport",22.757345,-12.482228,1119,AF,Mauritania,MR,"Tiris Zemmour Region",MR-11,11,Zouérate,0,GQPZ,GQPZ,OUZ,,,https://en.wikipedia.org/wiki/Tazadit_Airport,,50,2021-09-02T11:59:04+00:00
308033,FDSK,large_airport,"King Mswati III International Airport",-26.358611,31.716944,1092,AF,Eswatini,SZ,"Lubombo Region",SZ-LU,LU,Mpaka,1,FDSK,FDSK,SHO,,http://www.eswacaa.co.sz/airports/kingmswatiIII/,https://en.wikipedia.org/wiki/King_Mswati_III_International_Airport,"Sikhuphe International Airport",1000,2021-04-09T15:24:37+00:00
3068,GAKY,medium_airport,"Kayes Dag Dag Airport",14.4812,-11.4044,164,AF,Mali,ML,"Kayes Region",ML-1,1,,1,GAKD,,KYS,,,https://en.wikipedia.org/wiki/Kayes_Airport,,750,2022-03-04T09:58:14+00:00
2127,DRZA,medium_airport,"Mano Dayak International Airport",16.965999603271484,8.000109672546387,1657,AF,Niger,NE,"Agadez Region",NE-1,1,Agadez,1,DRZA,DRZA,AJY,,,https://en.wikipedia.org/wiki/Mano_Dayak_International_Airport,,750,2008-09-13T06:41:45+00:00
2913,FMNA,medium_airport,"Arrachart Airport",-12.3494,49.291698,374,AF,Madagascar,MG,Antsiranana,MG-D,D,Antisiranana,1,FMNA,FMNA,DIE,,,https://en.wikipedia.org/wiki/Arrachart_Airport,Diego-Suárez,750,2021-04-13T16:12:00+00:00
3160,HAAX,medium_airport,"Axum Airport",14.1468,38.7728,6959,AF,Ethiopia,ET,"Tigray Region",ET-TI,TI,Axum,1,HAAX,HAAX,AXU,,,https://en.wikipedia.org/wiki/Axum_Airport,"Aksum, Emperor Yohannes IV Airport",750,2022-09-25T21:03:36+00:00
2072,DAOR,medium_airport,"Béchar Boudghene Ben Ali Lotfi Airport",31.645700454711914,-2.269860029220581,2661,AF,Algeria,DZ,"Béchar Province",DZ-08,08,Béchar,1,DAOR,DAOR,CBH,,,https://en.wikipedia.org/wiki/B%C3%A9char_Ouakda_Airport,"Béchar Ouakda Airport",750,2008-06-13T14:30:04+00:00
2049,DAAE,medium_airport,"Soummam–Abane Ramdane Airport",36.711952,5.069804,20,AF,Algeria,DZ,"Béjaïa Province",DZ-06,06,Béjaïa,1,DAAE,DAAE,BJA,BJ1,,https://en.wikipedia.org/wiki/Abane_Ramdane_Airport,"Béjaïa, Soummam",750,2022-09-13T13:51:33+00:00
3172,HCMI,medium_airport,"Berbera Airport",10.385035,44.936723,30,AF,Somalia,SO,"Maroodi Jeex",SO-WO,WO,Berbera,1,HCMI,HCMI,BBO,,,https://en.wikipedia.org/wiki/Berbera_Airport,,750,2021-04-13T16:05:19+00:00
2108,DNEN,medium_airport,"Akanu Ibiam International Airport",6.474269866943359,7.561960220336914,466,AF,Nigeria,NG,"Enugu State",NG-EN,EN,Enegu,1,DNEN,DNEN,ENU,,http://www.faannigeria.org/nigeria-airport.php?airport=11,https://en.wikipedia.org/wiki/Akanu_Ibiam_International_Airport,,750,2009-03-02T11:59:58+00:00
2886,FKKR,medium_airport,"Garoua International Airport",9.33588981628418,13.370100021362305,794,AF,Cameroon,CM,"North Region",CM-NO,NO,Garoua,1,FKKR,FKKR,GOU,,,https://en.wikipedia.org/wiki/Garoua_International_Airport,,750,2008-08-09T21:37:02+00:00
2111,DNIL,medium_airport,"Ilorin International Airport",8.440210342407227,4.493919849395752,1126,AF,Nigeria,NG,"Kwara State",NG-KW,KW,Ilorin,1,DNIL,DNIL,ILR,,http://www.faannigeria.org/nigeria-airport.php?airport=20,https://en.wikipedia.org/wiki/Ilorin_International_Airport,,750,2009-03-02T12:07:48+00:00
3060,FZQM,medium_airport,"Kolwezi Airport",-10.7659,25.505699,5007,AF,"Democratic Republic of the Congo",CD,"Lualaba Province",CD-LU,LU,Kolwezi,1,FZQM,FZQM,KWZ,,,https://en.wikipedia.org/wiki/Kolwezi_Airport,,750,2022-12-21T09:54:11+00:00
3212,HKLU,medium_airport,"Manda Airport",-2.252431,40.912892,20,AF,Kenya,KE,"Coast Province",KE-300,300,Lamu,1,HKLU,HKLU,LAU,,http://www.kenyaairports.co.ke/kaa/airports/airstrips/manda_intro.html,https://en.wikipedia.org/wiki/Manda_Airport,,750,2022-03-18T02:30:59+00:00
2973,FQLC,medium_airport,"Lichinga Airport",-13.274,35.2663,4505,AF,Mozambique,MZ,"Niassa Province",MZ-A,A,Lichinga,1,FQLC,FQLC,VXC,,,https://en.wikipedia.org/wiki/Lichinga_Airport,,750,2018-02-16T11:19:24+00:00
2945,FNME,medium_airport,"Menongue Airport",-14.657600402832031,17.71980094909668,4469,AF,Angola,AO,"Cuando Cubango Province",AO-CCU,CCU,Menongue,1,FNME,FNME,SPP,,,https://en.wikipedia.org/wiki/Menongue_Airport,,750,2009-03-10T17:17:26+00:00
2912,FMMV,medium_airport,"Morondava Airport",-20.2847,44.3176,30,AF,Madagascar,MG,Toliara,MG-U,U,Morondava,1,FMMV,FMMV,MOQ,,,https://en.wikipedia.org/wiki/Morondava_Airport,,750,2021-02-23T20:25:16+00:00
2958,FOGM,medium_airport,"Mouilla Ville Airport",-1.84514,11.0567,295,AF,Gabon,GA,"Ngounié Province",GA-4,4,Mouila,0,FOGM,FOGM,MJL,,,https://en.wikipedia.org/wiki/Mouila_Airport,,750,2025-02-05T18:46:45+00:00
3256,HTMT,medium_airport,"Mtwara Airport",-10.336204,40.181997,371,AF,Tanzania,TZ,"Mtwara Region",TZ-17,17,Mtwara,1,HTMT,HTMT,MYW,,,https://en.wikipedia.org/wiki/Mtwara_Airport,,750,2021-08-05T15:54:50+00:00
3020,FWUU,medium_airport,"Mzuzu Airport",-11.4447,34.011799,4115,AF,Malawi,MW,"Mzimba District",MW-MZ,MZ,Mzuzu,0,FWUU,FWUU,ZZU,,,https://en.wikipedia.org/wiki/Mzuzu_Airport,,750,2024-01-25T01:31:43+00:00
2903,FMCV,medium_airport,"Ouani Airport",-12.131047,44.430044,62,AF,Comoros,KM,"Anjouan (Ndzouani)",KM-A,A,Ouani,1,FMCV,FMCV,AJN,,,https://en.wikipedia.org/wiki/Ouani_Airport,,750,2022-06-26T04:34:00+00:00
2959,FOGO,medium_airport,"Oyem Airport",1.5431100130081177,11.581399917602539,2158,AF,Gabon,GA,"Woleu-Ntem Province",GA-9,9,Oyem,1,FOGO,FOGO,OYE,,,https://en.wikipedia.org/wiki/Oyem_Airport,,750,2008-12-19T20:05:37+00:00
2982,FQQL,medium_airport,"Quelimane Airport",-17.855499267578125,36.86909866333008,36,AF,Mozambique,MZ,"Zambezia Province",MZ-Q,Q,Quelimane,1,FQQL,FQQL,UEL,,,https://en.wikipedia.org/wiki/Quelimane_Airport,,750,2009-07-08T22:00:58+00:00
2906,FMEP,medium_airport,"Pierrefonds Airport",-21.319362,55.422506,59,AF,Réunion,RE,"Saint-Pierre Arrondissement",RE-SR,SR,Saint-Pierre,1,FMEP,FMEP,ZSE,,http://www.grandsudreunion.org/FR2004/aeroport.php,https://en.wikipedia.org/wiki/Pierrefonds_Airport,"Aéroport de Saint-Pierre - Pierrefonds",750,2022-12-21T14:18:09+00:00
2095,DGTK,medium_airport,"Takoradi Airport",4.896059989929199,-1.7747600078582764,21,AF,Ghana,GH,"Western Region",GH-WP,WP,Sekondi-Takoradi,1,DGTK,DGTK,TKD,,,https://en.wikipedia.org/wiki/Takoradi_Airport,,750,2009-06-06T09:30:14+00:00
2866,FBSP,medium_airport,"Selebi Phikwe Airport",-22.0583,27.8288,2925,AF,Botswana,BW,"Selebi-Phikwe (town)",BW-SP,SP,"Selebi Phikwe",0,FBSP,FBSP,PKW,,,https://en.wikipedia.org/wiki/Selebi-Phikwe_Airport,,750,2025-02-26T17:51:11+00:00
2131,DTKA,medium_airport,"Tabarka-Aïn Draham International Airport",36.98,8.87694,230,AF,Tunisia,TN,"Jendouba Governorate",TN-32,32,Tabarka,1,DTKA,DTKA,TBJ,,,https://en.wikipedia.org/wiki/Tabarka%E2%80%93A%C3%AFn_Draham_International_Airport,"Tabarka 7 Novembre Airport",750,2022-09-13T13:42:08+00:00
2911,FMMT,medium_airport,"Toamasina Ambalamanasy Airport",-18.109501,49.392502,22,AF,Madagascar,MG,Toamasina,MG-A,A,Toamasina,1,FMMT,FMMT,TMM,,,https://en.wikipedia.org/wiki/Toamasina_Airport,,750,2021-04-13T16:13:37+00:00
2927,FMSD,medium_airport,"Tôlanaro Airport",-25.038099,46.9561,29,AF,Madagascar,MG,Toliara,MG-U,U,Tôlanaro,1,FMSD,FMSD,FTU,,,https://en.wikipedia.org/wiki/T%C3%B4lanaro_Airport,"Tolagnaro Airport, Marillac Airport, Fort-Dauphin",750,2021-04-13T16:14:43+00:00
2933,FMST,medium_airport,"Toliara Airport",-23.3834,43.7285,29,AF,Madagascar,MG,Toliara,MG-U,U,Toliara,1,FMST,FMST,TLE,,,https://en.wikipedia.org/wiki/Toliara_Airport,,750,2021-02-23T20:26:06+00:00
2081,DAUK,medium_airport,"Touggourt Sidi Madhi Airport",33.067799,6.08867,279,AF,Algeria,DZ,"Touggourt Province",DZ-55,55,Touggourt,1,DAUK,DAUK,TGR,,,https://en.wikipedia.org/wiki/Touggourt_Sidi_Madhi_Airport,,750,2022-09-27T14:50:08+00:00
35151,GECE,heliport,"Ceuta Heliport",35.892657,-5.306321,8,AF,Spain,ES,"Ceuta (city)",ES-CE,CE,Ceuta,1,GECE,,JCU,,https://www.aena.es/en/ceuta.html,https://en.wikipedia.org/wiki/Ceuta_Heliport,GECT,625,2022-11-01T17:25:27+00:00
28481,HKAM,medium_airport,"Amboseli Airport",-2.645050048828125,37.25310134887695,3755,AF,Kenya,KE,"Rift Valley Province",KE-700,700,"Amboseli National Park",1,HKAM,HKAM,ASV,,,https://en.wikipedia.org/wiki/Amboseli_Airport,"Maasai Amboseli Game Reserve",500,2009-02-08T10:24:17+00:00
27301,BCW,medium_airport,"Benguera Island Airport",-21.8533,35.438301,,AF,Mozambique,MZ,"Inhambane Province",MZ-I,I,"Benguera Island",0,,,BCW,,,https://en.wikipedia.org/wiki/Benguera_Island_Airport,,500,2024-01-25T01:33:56+00:00
3252,HTDO,medium_airport,"Dodoma Airport",-6.17044,35.752602,3673,AF,Tanzania,TZ,"Dodoma Region",TZ-03,03,Dodoma,1,HTDO,HTDO,DOD,,,https://en.wikipedia.org/wiki/Dodoma_Airport,,500,2021-11-02T10:04:25+00:00
30920,FCPL,medium_airport,"Ngot Nzoungou Airport",-4.20635,12.6599,1079,AF,"Republic of the Congo",CG,"Niari Department",CG-9,9,Dolisie,0,FCPD,FCPD,DIS,,,https://en.wikipedia.org/wiki/Dolisie_Airport,Dolisie,500,2025-03-19T01:30:12+00:00
44578,DNGO,medium_airport,"Gombe Lawanti International Airport",10.298889,10.9,1590,AF,Nigeria,NG,"Gombe State",NG-GO,GO,Gombe,1,DNGO,DNGO,GMO,,,https://en.wikipedia.org/wiki/Gombe_Lawanti_International_Airport,,500,2025-02-10T09:12:37+00:00
2117,DNMK,medium_airport,"Makurdi Airport",7.70388,8.61394,371,AF,Nigeria,NG,"Benue State",NG-BE,BE,Makurdi,1,DNMK,DNMK,MDI,,http://www.faannigeria.org/nigeria-airport.php?airport=23,https://en.wikipedia.org/wiki/Makurdi_Airport,,500,2017-03-28T10:38:42+00:00
318875,HTGW,medium_airport,"Songwe Airport",-8.919942,33.273981,4412,AF,Tanzania,TZ,"Mbeya Region",TZ-14,14,Mbeya,1,HTGW,,MBI,,,https://en.wikipedia.org/wiki/Songwe_Airport,,500,2018-05-05T12:43:28+00:00
43788,SO-0001,medium_airport,"K50 International Airport",2.00528,44.986599,100,AF,Somalia,SO,"Lower Shabelle",SO-SH,SH,Mogadishu,1,,,,,,https://en.wikipedia.org/wiki/K50_Airport,"Km N° 50 Airport",500,2016-06-02T08:47:26+00:00
3138,GQPP,medium_airport,"Nouadhibou International Airport",20.9330997467041,-17.030000686645508,24,AF,Mauritania,MR,"Dakhlet Nouadhibou Region",MR-08,08,Nouadhibou,1,GQPP,GQPP,NDB,,,https://en.wikipedia.org/wiki/Nouadhibou_International_Airport,,500,2009-06-13T16:09:31+00:00
3155,GVSV,medium_airport,"São Pedro Airport",16.8332,-25.0553,66,AF,"Cape Verde",CV,"Barlavento Islands",CV-B,B,"São Pedro",1,GVSV,GVSV,VXE,,,https://en.wikipedia.org/wiki/S%C3%A3o_Pedro_Airport,"São Vicente Island",500,2021-11-07T17:26:06+00:00
3219,HLGD,medium_airport,"Sirt International Airport / Ghardabiya Airbase",31.063499,16.594999,267,AF,Libya,LY,"Surt District",LY-SR,SR,Sirt,1,HLGD,HLGD,SRX,,,https://en.wikipedia.org/wiki/Ghardabiya_Airbase,"Gardabiya, Sirte",500,2022-09-13T13:04:39+00:00
309668,DNAI,medium_airport,"Akwa Ibom International Airport",4.8725,8.093,170,AF,Nigeria,NG,"Akwa Ibom State",NG-AK,AK,Uyo,1,DNAI,DNAI,QUO,,http://www.ibomairport.com.ng/,https://en.wikipedia.org/wiki/Akwa_Ibom_Airport,,500,2021-11-21T16:14:44+00:00
30553,HSWW,medium_airport,"Wau Airport",7.72583,27.975,1529,AF,"South Sudan",SS,"Western Bahr el Ghazal State",SS-BW,BW,Wau,1,HJWW,,WUU,,,https://en.wikipedia.org/wiki/Wau_Airport,,500,2022-04-20T05:56:21+00:00
2119,DNMN,medium_airport,"Minna Airport",9.652170181274414,6.462259769439697,834,AF,Nigeria,NG,"Niger State",NG-NI,NI,Minna,0,DNMN,DNMN,MXJ,,http://www.faannigeria.org/nigeria-airport.php?airport=19,https://en.wikipedia.org/wiki/Minna_Airport,,325,2009-03-02T11:52:12+00:00
2101,DISP,medium_airport,"San Pedro Airport",4.74672,-6.66082,26,AF,"Côte d'Ivoire",CI,"Bas-Sassandra District",CI-BS,BS,,0,DISP,DISP,SPY,,,https://en.wikipedia.org/wiki/San_P%C3%A9dro_Airport,,250,2024-01-18T18:21:33+00:00
2768,FAAG,medium_airport,"Aggeneys Airport",-29.281799,18.8139,2648,AF,"South Africa",ZA,"Northern Cape",ZA-NC,NC,Aggeneys,0,FAAG,FAAG,AGZ,,,https://en.wikipedia.org/wiki/Aggeneys_Airport,,250,2023-07-22T16:20:07+00:00
2767,FAAB,medium_airport,"Alexander Bay Airport",-28.575001,16.5333,98,AF,"South Africa",ZA,"Northern Cape",ZA-NC,NC,"Alexander Bay",0,FAAB,FAAB,ALJ,,,https://en.wikipedia.org/wiki/Alexander_Bay_Airport,Kortdoorn,250,2018-05-19T20:07:56+00:00
3024,FYAR,medium_airport,"Arandis Airport",-22.461875,14.979322,1905,AF,Namibia,NA,"Erongo Region",NA-ER,ER,Arandis,0,FYAR,FYAR,ADI,,,https://en.wikipedia.org/wiki/Arandis_Airport,,250,2023-05-01T15:59:51+00:00
3127,GOTB,medium_airport,"Bakel Airport",14.847299575805664,-12.468299865722656,98,AF,Senegal,SN,"Tambacounda Region",SN-TC,TC,Bakel,0,GOTB,GOTB,BXE,,,https://en.wikipedia.org/wiki/Bakel_Airport,,250,2009-04-01T13:51:48+00:00
300605,GMFB,medium_airport,"Bouarfa Airport",32.514306,-1.983056,3630,AF,Morocco,MA,"L'Oriental Region",MA-02,02,Bouarfa,0,GMFB,GMFB,UAR,,,https://en.wikipedia.org/wiki/Bouarfa_Airport,,250,2024-04-07T13:37:00+00:00
3184,HECW,medium_airport,"Cairo West Air Base",30.107943,30.915222,535,AF,Egypt,EG,"Giza Governorate",EG-GZ,GZ,Cairo,0,HECW,,,,,https://en.wikipedia.org/wiki/Cairo_West_Air_Base,CWE,250,2022-11-04T15:23:45+00:00
3026,FYGF,medium_airport,"Grootfontein Airport",-19.6022,18.1227,4636,AF,Namibia,NA,"Otjozondjupa Region",NA-OD,OD,Grootfontein,0,FYGF,FYGF,GFY,,,https://en.wikipedia.org/wiki/Grootfontein_Air_Force_Base,,250,2024-05-16T19:50:16+00:00
3016,FWKA,medium_airport,"Karonga Airport",-9.953571,33.893264,1765,AF,Malawi,MW,"Karonga District",MW-KR,KR,Karonga,0,FWKA,FWKA,KGJ,,,https://en.wikipedia.org/wiki/Karonga_Airport,,250,2024-01-25T16:16:05+00:00
3028,FYKT,medium_airport,"Keetmanshoop Airport",-26.539801,18.111401,3506,AF,Namibia,NA,"ǁKaras Region",NA-KA,KA,Keetmanshoop,0,FYKT,FYKT,KMP,,,https://en.wikipedia.org/wiki/Keetmanshoop_Airport,,250,2024-05-16T19:50:36+00:00
2898,FLSO,medium_airport,"Southdowns Airport",-12.9005,28.1499,4145,AF,Zambia,ZM,"Copperbelt Province",ZM-08,08,Kitwe,0,FLSO,FLSO,KIW,,,https://en.wikipedia.org/wiki/Southdowns_Airport,,250,2024-05-16T19:37:14+00:00
2099,DIKO,medium_airport,"Korhogo Airport",9.38718,-5.55666,1214,AF,"Côte d'Ivoire",CI,"Savanes District",CI-SV,SV,Korhogo,0,DIKO,DIKO,HGO,,,https://en.wikipedia.org/wiki/Korhogo_Airport,,250,2022-10-17T13:30:59+00:00
2806,FALY,medium_airport,"Ladysmith Airport",-28.5816993713,29.749700546299998,3548,AF,"South Africa",ZA,Kwazulu-Natal,ZA-NL,NL,Ladysmith,0,FALY,FALY,LAY,,,https://en.wikipedia.org/wiki/Ladysmith_Airport,,250,2013-12-06T23:08:41+00:00
3211,HKLO,medium_airport,"Lodwar Airport",3.12197,35.6087,1715,AF,Kenya,KE,"Rift Valley Province",KE-700,700,Lodwar,0,HKLO,HKLO,LOK,,,https://en.wikipedia.org/wiki/Lodwar_Airport,,250,2024-05-16T19:59:50+00:00
2953,FNUE,medium_airport,"Luena Airport",-11.7681,19.897699,4360,AF,Angola,AO,"Moxico Province",AO-MOX,MOX,Luena,0,FNUE,FNUE,LUO,,,https://en.wikipedia.org/wiki/Luena_Airport,,250,2024-05-16T19:40:28+00:00
3062,FZSA,medium_airport,"Kamina Air Base",-8.64202,25.252899,3543,AF,"Democratic Republic of the Congo",CD,"Haut-Lomami Province",CD-HL,HL,Lumwe,0,FZSA,,,,,https://en.wikipedia.org/wiki/Kamina_Air_Base,,250,2022-12-21T10:20:46+00:00
2892,FLLC,medium_airport,"Lusaka City Airport",-15.4138,28.3307,4200,AF,Zambia,ZM,"Lusaka Province",ZM-09,09,Lusaka,0,FLLC,,,,,https://en.wikipedia.org/wiki/Lusaka_City_Airport,,250,2024-05-18T15:30:35+00:00
3228,HLMB,medium_airport,"Marsa al Brega Airport",30.378099,19.576401,50,AF,Libya,LY,"Al Wahat District",LY-WA,WA,"Marsa al Brega",0,HLMB,HLMB,LMQ,,,https://en.wikipedia.org/wiki/Marsa_Brega_Airport,,250,2024-05-16T20:00:39+00:00
3106,GMFM,medium_airport,"Bassatine Airport",33.879101,-5.51512,1890,AF,Morocco,MA,"Fès-Meknès Region",MA-03,03,Meknes,0,GMFM,GMFM,MEK,,,https://en.wikipedia.org/wiki/Bassatine_Air_Base,,250,2024-04-07T13:36:09+00:00
2977,FQMP,medium_airport,"Mocímboa da Praia Airport",-11.3618,40.3549,89,AF,Mozambique,MZ,"Cabo Delgado Province",MZ-P,P,"Mocímboa da Praia",0,FQMP,FQMP,MZB,,,https://en.wikipedia.org/wiki/Moc%C3%ADmboa_da_Praia_Airport,,250,2024-05-20T13:24:20+00:00
2976,FQMD,medium_airport,"Mueda Airport",-11.6729,39.563099,2789,AF,Mozambique,MZ,"Cabo Delgado Province",MZ-P,P,Mueda,0,FQMD,FQMD,MUD,,,https://en.wikipedia.org/wiki/Mueda_Airport,,250,2024-05-16T19:44:22+00:00
3253,HTIR,medium_airport,"Iringa Airport",-7.66863,35.752102,4678,AF,Tanzania,TZ,"Iringa Region",TZ-04,04,Nduli,0,HTIR,HTIR,IRI,,,https://en.wikipedia.org/wiki/Iringa_Airport,,250,2024-05-16T20:01:38+00:00
2819,FAOH,medium_airport,"Oudtshoorn Airport",-33.6069984436,22.188999176,1063,AF,"South Africa",ZA,"Western Cape",ZA-WC,WC,Oudtshoorn,0,FAOH,FAOH,OUH,FAOH,,,,250,2014-01-29T10:34:56+00:00
2824,FAPJ,medium_airport,"Port St Johns Airport",-31.60612,29.52175,1227,AF,"South Africa",ZA,"Eastern Cape",ZA-EC,EC,"Port St Johns",0,FAPJ,FAPJ,JOH,,,,,250,2021-11-15T14:52:28+00:00
2830,FAQT,medium_airport,"Queenstown Airport",-31.92020034790039,26.882200241088867,3637,AF,"South Africa",ZA,"Eastern Cape",ZA-EC,EC,Queenstown,0,FAQT,FAQT,UTW,,,,,250,2008-08-13T13:21:11+00:00
2836,FASD,medium_airport,"Saldanha/Vredenburg Airport",-32.9641,17.969299,50,AF,"South Africa",ZA,"Western Cape",ZA-WC,WC,Saldanha-Vredenburg,0,FASD,,,,,,,250,2022-05-04T05:17:59+00:00
3036,FYTM,medium_airport,"Tsumeb Airport",-19.26189994812,17.732500076294,4353,AF,Namibia,NA,"Oshikoto Region",NA-OT,OT,Tsumeb,0,FYTM,FYTM,TSB,,,https://en.wikipedia.org/wiki/Tsumeb_Airport,,250,2015-09-11T21:41:22+00:00
30654,HSAT,small_airport,"Atbara Airport",17.710344314575195,34.0570182800293,1181,AF,Sudan,SD,"River Nile State",SD-04,04,Atbara,1,HSAT,HSAT,ATB,,,https://en.wikipedia.org/wiki/Atbara_Airport,,150,2009-04-03T07:25:40+00:00
30777,DATM,small_airport,"Bordj Badji Mokhtar Airport",21.3778,0.92698,1303,AF,Algeria,DZ,"Bordj Baji Mokhtar Province",DZ-52,52,"Bordj Badji Mokhtar",1,DATM,DATM,BMW,,,https://en.wikipedia.org/wiki/Bordj_Mokhtar_Airport,,150,2022-09-27T14:44:40+00:00
