id,ident,type,name,latitude_deg,longitude_deg,elevation_ft,continent,country_name,iso_country,region_name,iso_region,local_region,municipality,scheduled_service,gps_code,icao_code,iata_code,local_code,home_link,wikipedia_link,keywords,score,last_updated
5235,OMDB,large_airport,"Dubai International Airport",25.2527999878,55.3643989563,62,AS,"United Arab Emirates",AE,"Dubai Emirate",AE-DU,DU,Dubai,1,OMDB,OMDB,DXB,,http://www.dubaiairport.com/dia/english/home/,https://en.wikipedia.org/wiki/Dubai_International_Airport,"مطار دبي الدولي‎",1013675,2013-05-04T06:01:33+00:00
26887,WSSS,large_airport,"Singapore Changi Airport",1.35019,103.994003,22,AS,Singapore,SG,"South East",SG-04,04,Singapore,1,WSSS,WSSS,SIN,,http://www.changiairport.com/,https://en.wikipedia.org/wiki/Singapore_Changi_Airport,"RAF Changi",1034575,2021-04-09T01:37:42+00:00
5531,RJAA,large_airport,"Narita International Airport",35.764702,140.386002,141,AS,Japan,JP,"Chiba Prefecture",JP-12,12,Narita,1,RJAA,RJAA,NRT,,https://www.narita-airport.jp/en/,https://en.wikipedia.org/wiki/Narita_International_Airport,"TYO, Tokyo, Tokyo Narita Airport, New Tokyo International Airport",1033675,2024-04-29T19:25:36+00:00
26535,VHHH,large_airport,"Hong Kong International Airport",22.308901,113.915001,28,AS,"Hong Kong",HK,"New Territories",HK-NT,NT,"Hong Kong",1,VHHH,VHHH,HKG,,http://www.hongkongairport.com/,https://en.wikipedia.org/wiki/Hong_Kong_International_Airport,"Chek Lap Kok Airport, 赤鱲角機場",1044675,2024-02-28T03:33:36+00:00
28118,VTBS,large_airport,"Suvarnabhumi Airport",13.681099891662598,100.74700164794922,5,AS,Thailand,TH,"Bangkok (special administrative area)",TH-10,10,Bangkok,1,VTBS,VTBS,BKK,,,https://en.wikipedia.org/wiki/Suvarnabhumi_Airport,,51150,2009-01-29T16:23:22+00:00
4528,LTBA,medium_airport,"İstanbul Atatürk Airport",40.971913,28.823714,163,AS,Turkey,TR,"İstanbul Province",TR-34,34,"Bakırköy, Istanbul",0,LTBA,LTBA,ISL,,http://www.ataturkairport.com/eng/,https://en.wikipedia.org/wiki/Istanbul_Atat%C3%BCrk_Airport,"Ataturk, Yeşilköy, Yesilkoy",750,2025-02-26T21:52:47+00:00
27188,ZBAA,large_airport,"Beijing Capital International Airport",40.080101013183594,116.58499908447266,116,AS,China,CN,"Beijing Municipality",CN-11,11,Beijing,1,ZBAA,ZBAA,PEK,,http://en.bcia.com.cn/,https://en.wikipedia.org/wiki/Beijing_Capital_International_Airport,"BJS, Bejing, Peking, Olympics",1021575,2008-06-13T14:30:04+00:00
26874,WMKK,large_airport,"Kuala Lumpur International Airport",2.74558,101.709999,69,AS,Malaysia,MY,Selangor,MY-10,10,Sepang,1,WMKK,WMKK,KUL,,,https://en.wikipedia.org/wiki/Kuala_Lumpur_International_Airport,KLIA,1017575,2022-11-08T11:03:43+00:00
5653,RKSI,large_airport,"Incheon International Airport",37.469101,126.450996,23,AS,"South Korea",KR,"Incheon-gwangyeoksi (Incheon Metropolitan City)",KR-28,28,Seoul,1,RKSI,RKSI,ICN,,https://www.airport.kr/ap/en/index.do,https://en.wikipedia.org/wiki/Incheon_International_Airport,,51675,2024-04-29T19:30:02+00:00
26555,VIDP,large_airport,"Indira Gandhi International Airport",28.55563,77.09519,777,AS,India,IN,"Delhi (National Capital Territory)",IN-DL,DL,"New Delhi",1,VIDP,VIDP,DEL,,http://www.newdelhiairport.in/,https://en.wikipedia.org/wiki/Indira_Gandhi_International_Airport,"Palam Air Force Station",51475,2022-02-11T17:31:57+00:00
27223,ZSPD,large_airport,"Shanghai Pudong International Airport",31.1434,121.805,13,AS,China,CN,"Shanghai Municipality",CN-31,31,"Shanghai (Pudong)",1,ZSPD,ZSPD,PVG,,https://www.shanghaiairport.com/index.html,https://en.wikipedia.org/wiki/Shanghai_Pudong_International_Airport,,51150,2023-01-28T02:09:04+00:00
4411,LLBG,large_airport,"Ben Gurion International Airport",32.011398,34.8867,135,AS,Israel,IL,"Central District",IL-M,M,"Tel Aviv",1,LLBG,LLBG,TLV,,http://www.iaa.gov.il/Rashat/en-US/Airports/BenGurion/,https://en.wikipedia.org/wiki/Ben_Gurion_International_Airport,,1011275,2023-12-04T15:09:21+00:00
5627,RJTT,large_airport,"Tokyo Haneda International Airport",35.552299,139.779999,35,AS,Japan,JP,"Tōkyō Prefecture",JP-13,13,Tokyo,1,RJTT,RJTT,HND,,http://www.haneda-airport.jp/,https://en.wikipedia.org/wiki/Tokyo_International_Airport,"TYO, Haneda",1168475,2021-04-09T01:56:38+00:00
26638,VTBD,large_airport,"Don Mueang International Airport",13.9125995636,100.607002258,9,AS,Thailand,TH,"Bangkok (special administrative area)",TH-10,10,Bangkok,1,VTBD,VTBD,DMK,,http://www2.airportthai.co.th/airportnew/bangkok/index.asp?lang=en,https://en.wikipedia.org/wiki/Don_Mueang_International_Airport,"Old Bangkok International Airport, Don Muang Royal Thai Air Force Base",1000,2014-01-27T11:03:44+00:00
5528,RCTP,large_airport,"Taiwan Taoyuan International Airport",25.0777,121.233002,106,AS,Taiwan,TW,"Taoyuan City",TW-TAO,TAO,Taoyuan,1,RCTP,RCTP,TPE,,http://www.taoyuan-airport.com/,https://zh.wikipedia.org/wiki/%E8%87%BA%E7%81%A3%E6%A1%83%E5%9C%92%E5%9C%8B%E9%9A%9B%E6%A9%9F%E5%A0%B4,"Taoyuan County, Dayuan District. 臺灣桃園國際機場",1018675,2024-08-24T19:02:23+00:00
26434,VABB,large_airport,"Chhatrapati Shivaji International Airport",19.0886993408,72.8678970337,39,AS,India,IN,Maharashtra,IN-MM,MM,Mumbai,1,VABB,VABB,BOM,,http://www.csia.in/,https://en.wikipedia.org/wiki/Chhatrapati_Shivaji_International_Airport,"Bombay, Sahar International Airport",1014475,2013-04-12T01:27:48+00:00
5226,OMAA,large_airport,"Zayed International Airport",24.443764,54.651718,88,AS,"United Arab Emirates",AE,"Abu Dhabi Emirate",AE-AZ,AZ,"Abu Dhabi",1,OMAA,OMAA,AUH,,http://www.abudhabiairport.ae/,https://en.wikipedia.org/wiki/Abu_Dhabi_International_Airport,"Abu Dhabi International",1275,2024-08-22T14:40:57+00:00
26751,WADD,large_airport,"Denpasar I Gusti Ngurah Rai International Airport",-8.748409,115.167123,14,AS,Indonesia,ID,Bali,ID-BA,BA,"Kuta, Badung",1,WADD,WADD,DPS,,http://www.angkasapura1.co.id/eng/location/bali.htm,https://en.wikipedia.org/wiki/Ngurah_Rai_International_Airport,"WRRR, Bali, Denpasar International Airport, Denpasar",1200,2025-02-21T20:46:40+00:00
44686,OTHH,large_airport,"Hamad International Airport",25.273056,51.608056,13,AS,Qatar,QA,"Ad-Dawhah Municipality",QA-DA,DA,Doha,1,OTHH,OTHH,DOH,,http://dohahamadairport.com/,https://en.wikipedia.org/wiki/Hamad_International_Airport,"New Doha International Airport",1000,2020-01-31T15:38:38+00:00
5689,RPLL,large_airport,"Ninoy Aquino International Airport",14.5086,121.019997,75,AS,Philippines,PH,"National Capital Region (Metropolitan Manila)",PH-00,00,"Manila (Pasay)",1,RPLL,RPLL,MNL,,,https://en.wikipedia.org/wiki/Ninoy_Aquino_International_Airport,"Manila International Airport, Jesus Villamor Air Base",1014275,2024-12-17T00:37:37+00:00
26674,VTSP,large_airport,"Phuket International Airport",8.1132,98.316902,82,AS,Thailand,TH,"Phuket Province",TH-83,83,Phuket,1,VTSP,VTSP,HKT,,https://phuket.airportthai.co.th/,https://en.wikipedia.org/wiki/Phuket_International_Airport,,1050,2025-02-18T20:51:59+00:00
26708,VVTS,large_airport,"Tan Son Nhat International Airport",10.8188,106.652,33,AS,Vietnam,VN,"Southeast Region",VN-SE,SE,"Ho Chi Minh City",1,VVTS,VVTS,SGN,,http://www.tsnairport.hochiminhcity.gov.vn/,https://en.wikipedia.org/wiki/Tan_Son_Nhat_International_Airport,"Tansonnhat, Sài Gòn, Saigon, Sân bay Quốc tế Tân Sơn Nhất, Tan Son Nhut Air Base, Tan Son Nhut Airfield",51275,2022-01-10T18:36:21+00:00
26835,WIII,large_airport,"Soekarno-Hatta International Airport",-6.1255698204,106.65599823,34,AS,Indonesia,ID,Banten,ID-BT,BT,Jakarta,1,WIII,WIII,CGK,,http://www.jakartasoekarnohattaairport.com/,https://en.wikipedia.org/wiki/Soekarno-Hatta_International_Airport,"JKT, Cengkareng, Java",51600,2013-02-07T12:57:41+00:00
3980,LCLK,large_airport,"Larnaca International Airport",34.875099,33.624901,8,AS,Cyprus,CY,"Larnaca District",CY-04,04,Larnaca,1,LCLK,LCLK,LCA,,http://www.cyprusairports.com.cy/showpage.php?PageID=2,https://en.wikipedia.org/wiki/Larnaca_International_Airport,"Διεθνές Aεροδρόμιο Λάρνακας",1200,2021-04-27T14:49:45+00:00
5536,RJBB,large_airport,"Kansai International Airport",34.427299,135.244003,26,AS,Japan,JP,"Ōsaka Prefecture",JP-27,27,Osaka,1,RJBB,RJBB,KIX,,http://www.kansai-airport.or.jp/en/index.asp,https://en.wikipedia.org/wiki/Kansai_International_Airport,OSA,1023275,2021-04-10T17:18:28+00:00
4515,LTAI,large_airport,"Antalya International Airport",36.898701,30.800501,177,AS,Turkey,TR,"Antalya Province",TR-07,07,Antalya,1,LTAI,LTAI,AYT,,http://www.antalya.dhmi.gov.tr/havaalanlari/default.aspx?hv=4,https://en.wikipedia.org/wiki/Antalya_Airport,,51150,2016-05-20T02:42:02+00:00
4569,LTFJ,large_airport,"Istanbul Sabiha Gökçen International Airport",40.898602,29.3092,312,AS,Turkey,TR,"İstanbul Province",TR-34,34,"Pendik, Istanbul",1,LTFJ,LTFJ,SAW,,http://www.sgairport.com/,https://en.wikipedia.org/wiki/Istanbul_Sabiha_G%C3%B6k%C3%A7en_International_Airport,"Sabiha Gökçen Havalimanı",1275,2023-12-05T19:52:55+00:00
26700,VVNB,large_airport,"Noi Bai International Airport",21.221201,105.806999,39,AS,Vietnam,VN,"Red River Delta Region",VN-RRD,RRD,"Hanoi (Soc Son)",1,VVNB,VVNB,HAN,,,https://en.wikipedia.org/wiki/Noi_Bai_International_Airport,"Noibai Airport, Sân bay Quốc tế Nội Bài",1150,2022-09-23T10:15:29+00:00
5212,OJAI,large_airport,"Queen Alia International Airport",31.7226009369,35.9931983948,2395,AS,Jordan,JO,"Amman Governorate",JO-AM,AM,Amman,1,OJAI,OJAI,AMM,,,https://en.wikipedia.org/wiki/Queen_Alia_International_Airport,,1475,2010-09-02T22:02:57+00:00
26463,VCBI,large_airport,"Bandaranaike International Colombo Airport",7.180759906768799,79.88410186767578,30,AS,"Sri Lanka",LK,"Western Province",LK-1,1,Colombo,1,VCBI,VCBI,CMB,,http://www.airport.lk/,https://en.wikipedia.org/wiki/Bandaranaike_International_Airport,"RAF Negombo, Katunayake International Airport",1275,2009-08-26T21:30:39+00:00
27194,ZGGG,large_airport,"Guangzhou Baiyun International Airport",23.392401,113.299004,50,AS,China,CN,"Guangdong Province",CN-44,44,"Guangzhou (Huadu)",1,ZGGG,ZGGG,CAN,,http://www.baiyunairport.com/english/index.jsp,https://en.wikipedia.org/wiki/Guangzhou_Baiyun_International_Airport,,51575,2021-05-14T18:19:51+00:00
5242,OOMS,large_airport,"Muscat International Airport",23.5933,58.284401,48,AS,Oman,OM,"Masqat Governorate",OM-MA,MA,Muscat,1,OOMS,OOMS,MCT,,https://www.muscatairport.co.om/,https://en.wikipedia.org/wiki/Seeb_International_Airport,"Seeb International Airport, Masqat",1275,2024-04-29T19:24:50+00:00
26618,VOMM,large_airport,"Chennai International Airport",12.990005,80.169296,52,AS,India,IN,"Tamil Nadu",IN-TN,TN,Chennai,1,VOMM,VOMM,MAA,,,https://en.wikipedia.org/wiki/Chennai_International_Airport,Madras,51150,2022-09-09T12:28:58+00:00
26647,VTCC,large_airport,"Chiang Mai International Airport",18.766799926799997,98.962600708,1036,AS,Thailand,TH,"Chiang Mai Province",TH-50,50,"Chiang Mai",1,VTCC,VTCC,CNX,,,https://en.wikipedia.org/wiki/Chiang_Mai_International_Airport,,1050,2010-09-01T19:15:28+00:00
27225,ZSSS,large_airport,"Shanghai Hongqiao International Airport",31.198104,121.33426,10,AS,China,CN,"Shanghai Municipality",CN-31,31,"Shanghai (Minhang)",1,ZSSS,ZSSS,SHA,,,https://en.wikipedia.org/wiki/Shanghai_Hongqiao_International_Airport,,1016175,2021-05-14T18:24:55+00:00
35145,VOBL,large_airport,"Kempegowda International Airport",13.1979,77.706299,3000,AS,India,IN,Karnataka,IN-KA,KA,Bangalore,1,VOBL,VOBL,BLR,,http://www.bengaluruairport.com/home/home.jspx,https://en.wikipedia.org/wiki/Kempegowda_International_Airport,,51200,2016-02-01T17:54:36+00:00
5079,OBBI,large_airport,"Bahrain International Airport",26.267295,50.63764,6,AS,Bahrain,BH,"Muharraq Governorate",BH-15,15,Manama,1,OBBI,OBBI,BAH,,https://www.bahrainairport.bh/,https://en.wikipedia.org/wiki/Bahrain_International_Airport,"مطار البحرين الدولي",1275,2024-05-17T14:03:09+00:00
4279,LGRP,medium_airport,"Diagoras Airport",36.405399,28.086201,17,AS,Greece,GR,"South Aegean",GR-L,L,Rhodes,1,LGRP,LGRP,RHO,,https://www.rho-airport.gr/el/,https://en.wikipedia.org/wiki/Rhodes_International_Airport,,750,2024-05-06T11:30:05+00:00
5656,RKSS,large_airport,"Gimpo International Airport",37.5583,126.791,59,AS,"South Korea",KR,"Seoul-teukbyeolsi (Seoul Special City)",KR-11,11,Seoul,1,RKSS,RKSS,GMP,,http://gimpo.airport.co.kr/eng/index.jsp,https://en.wikipedia.org/wiki/Gimpo_International_Airport,,51675,2017-12-17T08:39:33+00:00
26636,VRMM,large_airport,"Malé International Airport",4.191830158233643,73.52909851074219,6,AS,Maldives,MV,"Malé (capital city)",MV-MLE,MLE,Malé,1,VRMM,VRMM,MLE,,http://www.airports.com.mv/,https://en.wikipedia.org/wiki/Mal%C3%A9_International_Airport,,1050,2009-08-23T13:38:00+00:00
26476,KH-0003,closed,"Siem Reap International Airport",13.41155,103.813044,60,AS,Cambodia,KH,"Siem Reap province",KH-17,17,"Siem Reap",1,,,,,http://www.cambodia-airports.com/siemreap/en,https://en.wikipedia.org/wiki/Siem_Reap_International_Airport,"Angkor International Airport, REP, VDSR",1150,2025-02-25T14:48:44+00:00
5308,OTBD,medium_airport,"Doha International Airport",25.261101,51.565102,35,AS,Qatar,QA,"Ad-Dawhah Municipality",QA-DA,DA,Doha,0,OTBD,OTBD,DIA,,,https://en.wikipedia.org/wiki/Doha_International_Airport,"مطار الدوحة الدولى",250,2025-02-20T04:06:02+00:00
5220,OKKK,large_airport,"Kuwait International Airport",29.226601,47.968899,206,AS,Kuwait,KW,"Al Farwaniyah Governorate",KW-FA,FA,"Kuwait City",1,OKKK,OKKK,KWI,,https://www.kuwaitairport.gov.kw/en/,https://en.wikipedia.org/wiki/Kuwait_International_Airport,"OKBK, Al Mubarak Air Base",1675,2025-03-01T17:03:21+00:00
27205,ZLXY,large_airport,"Xi'an Xianyang International Airport",34.447102,108.751999,1572,AS,China,CN,"Shaanxi Province",CN-61,61,"Xianyang (Weicheng)",1,ZLXY,ZLXY,XIY,,http://www.xxia.com/,https://en.wikipedia.org/wiki/Xi'an_Xianyang_International_Airport,"西安咸阳国际机场, Xian",51200,2022-08-29T14:29:51+00:00
4533,LTBJ,large_airport,"Adnan Menderes International Airport",38.2924,27.157,412,AS,Turkey,TR,"İzmir Province",TR-35,35,Gaziemir,1,LTBJ,LTBJ,ADB,,http://www.adnanmenderesairport.com,https://en.wikipedia.org/wiki/Adnan_Menderes_Airport,İzmir,1275,2023-12-02T09:03:21+00:00
26596,VNKT,large_airport,"Tribhuvan International Airport",27.6966,85.3591,4390,AS,Nepal,NP,"Bagmati Province",NP-P3,P3,Kathmandu,1,VNKT,VNKT,KTM,,http://www.tiairport.com.np/index.php,https://en.wikipedia.org/wiki/Tribhuvan_International_Airport,gaucharan,1000,2019-01-13T11:56:38+00:00
5097,OEJN,large_airport,"King Abdulaziz International Airport",21.6796,39.156502,48,AS,"Saudi Arabia",SA,"Makkah Region",SA-02,02,Jeddah,1,OEJN,OEJN,JED,,http://www.jed-airport.com/,https://en.wikipedia.org/wiki/King_Abdulaziz_International_Airport,"Mecca, Hajj",1013075,2016-11-17T21:21:49+00:00
26475,VDPP,large_airport,"Phnom Penh International Airport",11.5466,104.844002,40,AS,Cambodia,KH,"Phnom Penh (municipality)",KH-12,12,"Phnom Penh (Pou Senchey)",1,VDPP,VDPP,PNH,,http://www.cambodia-airports.com/phnompenh/en/,https://en.wikipedia.org/wiki/Phnom_Penh_International_Airport,"Pochentong International Airport",1150,2022-10-25T10:58:31+00:00
5598,RJOO,large_airport,"Osaka International Airport",34.7855,135.438004,50,AS,Japan,JP,"Ōsaka Prefecture",JP-27,27,Osaka,1,RJOO,RJOO,ITM,,https://www.osaka-airport.co.jp/en/,https://en.wikipedia.org/wiki/Osaka_International_Airport,"OSA, Itami",51150,2024-04-29T19:27:00+00:00
3198,HESH,large_airport,"Sharm El Sheikh International Airport",27.977272,34.394717,191,AS,Egypt,EG,"South Sinai Governorate",EG-JS,JS,"Sharm El Sheikh",1,HESH,HESH,SSH,,,https://en.wikipedia.org/wiki/Sharm_el-Sheikh_International_Airport,,1050,2024-05-05T21:19:18+00:00
26878,WMKP,medium_airport,"Penang International Airport",5.297140121459961,100.2770004272461,11,AS,Malaysia,MY,Penang,MY-07,07,Penang,1,WMKP,WMKP,PEN,,,https://en.wikipedia.org/wiki/Penang_International_Airport,,750,2008-08-17T17:08:57+00:00
5222,OLBA,large_airport,"Beirut Rafic Hariri International Airport",33.820899963378906,35.488399505615234,87,AS,Lebanon,LB,"Mount Lebanon Governorate",LB-JL,JL,Beirut,1,OLBA,OLBA,BEY,,http://www.beirutairport.gov.lb/,https://en.wikipedia.org/wiki/Beirut_Rafic_Hariri_International_Airport,"Chaldea, Beirut Air Base, مطار بيروت رفيق الحريري الدولي",1000,2009-02-09T21:39:48+00:00
26672,VTSM,medium_airport,"Samui Airport",9.54779,100.061996,64,AS,Thailand,TH,"Surat Thani Province",TH-84,84,"Na Thon (Ko Samui Island)",1,VTSM,VTSM,USM,,http://www.samuiairportonline.com,https://en.wikipedia.org/wiki/Samui_Airport,,750,2022-11-14T09:24:10+00:00
4509,LTAC,large_airport,"Esenboğa International Airport",40.128101,32.995098,3125,AS,Turkey,TR,"Ankara Province",TR-06,06,Ankara,1,LTAC,LTAC,ESB,,https://esenbogaairport.com/,https://en.wikipedia.org/wiki/Esenbo%C4%9Fa_International_Airport,,1675,2024-04-29T19:20:44+00:00
26697,VVDN,medium_airport,"Da Nang International Airport",16.0439,108.198997,33,AS,Vietnam,VN,"South Central Coast Region",VN-SCC,SCC,"Da Nang",1,VVDN,VVDN,DAD,,,https://en.wikipedia.org/wiki/Da_Nang_International_Airport,"Danang, Cảng Hàng không Quốc tế Đà Nẵng",750,2025-03-17T04:08:09+00:00
26496,VECC,large_airport,"Netaji Subhash Chandra Bose International Airport",22.654699,88.446701,16,AS,India,IN,"West Bengal",IN-WB,WB,Kolkata,1,VECC,VECC,CCU,,https://www.nscbiairport.com/,https://en.wikipedia.org/wiki/Netaji_Subhash_Chandra_Bose_International_Airport,"Calcutta, Kolkatta, Dum Dum Air Force Station",1200,2024-04-30T10:42:24+00:00
26669,VTSG,medium_airport,"Krabi Airport",8.09912014008,98.9861984253,82,AS,Thailand,TH,"Krabi Province",TH-81,81,Krabi,1,VTSG,VTSG,KBV,,,https://en.wikipedia.org/wiki/Krabi_Airport,,750,2010-09-01T19:17:14+00:00
27198,ZGSZ,large_airport,"Shenzhen Bao'an International Airport",22.639299,113.810997,13,AS,China,CN,"Guangdong Province",CN-44,44,"Shenzhen (Bao'an)",1,ZGSZ,ZGSZ,SZX,,http://eng.szairport.com/,https://en.wikipedia.org/wiki/Shenzhen_Bao'an_International_Airport,"Baoan, Huangtian Airport",51200,2021-05-14T18:19:35+00:00
6453,UGTB,large_airport,"Tbilisi International Airport",41.669201,44.9547,1624,AS,Georgia,GE,Tbilisi,GE-TB,TB,Tbilisi,1,UGTB,UGTB,TBS,,http://www.tbilisiairport.com/,https://en.wikipedia.org/wiki/Tbilisi_International_Airport,"თბილისის საერთაშორისო აეროპორტი",1000,2024-01-10T17:10:33+00:00
27230,ZUUU,large_airport,"Chengdu Shuangliu International Airport",30.558257,103.945966,1625,AS,China,CN,"Sichuan Province",CN-51,51,"Chengdu (Shuangliu)",1,ZUUU,ZUUU,CTU,,http://www.cdairport.com/cdairport/en_front/index.jsp,https://en.wikipedia.org/wiki/Chengdu_Shuangliu_International_Airport,成都双流国际机场,51150,2022-08-29T13:55:09+00:00
35141,VOHS,large_airport,"Rajiv Gandhi International Airport",17.231318,78.429855,2024,AS,India,IN,Telangana,IN-TG,TG,Hyderabad,1,VOHS,VOHS,HYD,,http://www.hyderabad.aero/,https://en.wikipedia.org/wiki/Rajiv_Gandhi_International_Airport,"Shamshabad, Hyderabad",1200,2022-09-09T12:25:05+00:00
26444,VOGO,large_airport,"Dabolim Airport",15.3808,73.831398,150,AS,India,IN,Goa,IN-GA,GA,"Vasco da Gama",1,VOGO,VOGO,GOI,,,https://en.wikipedia.org/wiki/Dabolim_Airport,"Goa Airport, Dabolim Navy Airbase, दाबोळी विमानतळ",1000,2022-10-13T15:12:26+00:00
5742,RPVM,large_airport,"Mactan Cebu International Airport",10.309261,123.97974,31,AS,Philippines,PH,"Cebu Province",PH-CEB,CEB,"Lapu-Lapu City",1,RPVM,RPVM,CEB,,http://www.mactan-cebuairport.com.ph/,https://en.wikipedia.org/wiki/Mactan-Cebu_International_Airport,"Mactan Air Base, Opon Airfield",1275,2022-11-08T01:21:42+00:00
4264,LGKO,medium_airport,"Kos Airport",36.794523,27.09115,412,AS,Greece,GR,"South Aegean",GR-L,L,"Kos Island",1,LGKO,LGKO,KGS,,https://www.kgs-airport.gr/el/,https://en.wikipedia.org/wiki/Kos_Island_International_Airport,,750,2024-05-06T10:59:16+00:00
3981,LCPH,medium_airport,"Paphos International Airport",34.717999,32.485699,41,AS,Cyprus,CY,"Paphos District",CY-06,06,Paphos,1,LCPH,LCPH,PFO,,http://paphosinternationalairport.com/index_papxmas.html,https://en.wikipedia.org/wiki/Paphos_International_Airport,"Pafos, Mandria, Kouklia, Διεθνής Αερολιμένας Πάφου",750,2023-12-04T14:03:58+00:00
5564,RJFF,large_airport,"Fukuoka Airport",33.585899353027344,130.4510040283203,32,AS,Japan,JP,"Fukuoka Prefecture",JP-40,40,Fukuoka,1,RJFF,RJFF,FUK,,http://www.fuk-ab.co.jp/english/frame_index.html,https://en.wikipedia.org/wiki/Fukuoka_Airport,"Itazuke Air Base",1022275,2008-06-13T14:30:04+00:00
6440,UBBB,large_airport,"Heydar Aliyev International Airport",40.467498779296875,50.04669952392578,10,AS,Azerbaijan,AZ,"Baku (city)",AZ-BA,BA,Baku,1,UBBB,UBBB,GYD,,http://www.airport-baku.com/,https://en.wikipedia.org/wiki/Heydar_Aliyev_International_Airport,"BAK, Bina International Airport, Heydər Əliyev adına beynəlxalq hava limanı",1375,2009-02-04T19:14:04+00:00
4542,LTBS,large_airport,"Dalaman International Airport",36.7131004333,28.7924995422,20,AS,Turkey,TR,"Muğla Province",TR-48,48,Dalaman,1,LTBS,LTBS,DLM,,,https://en.wikipedia.org/wiki/Dalaman_Airport,,1000,2010-12-14T17:42:24+00:00
5544,RJCC,large_airport,"New Chitose Airport",42.7752,141.692001,82,AS,Japan,JP,"Hokkaidō Prefecture",JP-01,01,Sapporo,1,RJCC,RJCC,CTS,,http://www.new-chitose-airport.jp/language/english/,https://en.wikipedia.org/wiki/New_Chitose_Airport,,1021475,2021-04-10T17:08:48+00:00
5112,OERK,large_airport,"King Khaled International Airport",24.9576,46.698799,2049,AS,"Saudi Arabia",SA,"Riyadh Region",SA-01,01,Riyadh,1,OERK,OERK,RUH,,https://www.kkia.sa/en/Pages/default.aspx,https://en.wikipedia.org/wiki/King_Khalid_International_Airport,Riyad,51600,2024-04-29T19:22:56+00:00
27214,ZPPP,large_airport,"Kunming Changshui International Airport",25.110313,102.936743,6903,AS,China,CN,"Yunnan Province",CN-53,53,Kunming,1,ZPPP,ZPPP,KMG,,,https://en.wikipedia.org/wiki/Kunming_Changshui_International_Airport,,51150,2022-08-29T18:56:56+00:00
6421,UAAA,large_airport,"Almaty International Airport",43.354267,77.042828,2234,AS,Kazakhstan,KZ,"Almaty City",KZ-ALA,ALA,Almaty,1,UAAA,UAAA,ALA,,,https://en.wikipedia.org/wiki/Almaty_International_Airport,"Alma Ata",1275,2022-09-30T12:00:47+00:00
26534,VGHS,large_airport,"Hazrat Shahjalal International Airport",23.843347,90.397783,30,AS,Bangladesh,BD,"Dhaka Division",BD-3,3,Dhaka,1,VGHS,VGHS,DAC,,,https://en.wikipedia.org/wiki/Shahjalal_International_Airport,"VGZR, Zia International Airport, Dacca International Airport, Hazrat Shahjalal International Airport",1050,2019-01-13T12:00:15+00:00
26787,WARJ,medium_airport,"Adisutjipto Airport",-7.78818,110.431999,379,AS,Indonesia,ID,Yogyakarta,ID-YO,YO,Yogyakarta,1,WAHH,,JOG,,http://adisutjipto-airport.co.id/,https://en.wikipedia.org/wiki/Adisutjipto_Airport,"WIIJ, WARJ, Adisucipto",500,2025-03-03T10:59:47+00:00
26789,WARR,large_airport,"Juanda International Airport",-7.37983,112.787003,9,AS,Indonesia,ID,"Jawa Timur (East Java)",ID-JI,JI,Surabaya,1,WARR,WARR,SUB,,http://www.juanda-airport.com/,https://en.wikipedia.org/wiki/Juanda_International_Airport,"WRSJ, Sedati, Sidoarjo",51150,2025-03-04T07:32:09+00:00
4567,LTFE,large_airport,"Milas Bodrum International Airport",37.250599,27.664301,21,AS,Turkey,TR,"Muğla Province",TR-48,48,Bodrum,1,LTFE,LTFE,BJV,,,https://en.wikipedia.org/wiki/Milas-Bodrum_Airport,,1275,2023-12-06T05:12:16+00:00
26609,VOCI,large_airport,"Cochin International Airport",10.151047,76.400838,30,AS,India,IN,Kerala,IN-KL,KL,Kochi,1,VOCI,VOCI,COK,,http://www.cial.aero/,https://en.wikipedia.org/wiki/Cochin_International_Airport,Cochin,1000,2025-03-21T06:26:04+00:00
5642,RKPK,large_airport,"Gimhae International Airport",35.179501,128.938004,6,AS,"South Korea",KR,"Busan-gwangyeoksi (Busan Metropolitan City)",KR-26,26,Busan,1,RKPK,RKPK,PUS,,https://www.airport.co.kr/gimhaeeng/index.do,https://en.wikipedia.org/wiki/Gimhae_International_Airport,"김해국제공항, 金海國際空港, Kimhae, Pusan",1275,2022-05-14T11:26:51+00:00
26744,VYYY,large_airport,"Yangon International Airport",16.907300949099998,96.1332015991,109,AS,Myanmar,MM,"Yangon Region",MM-06,06,Yangon,1,VYYY,VYYY,RGN,,http://www.yangonairportonline.com,https://en.wikipedia.org/wiki/Yangon_International_Airport,Rangoon,1000,2012-05-07T11:59:23+00:00
6423,UACC,large_airport,"Nursultan Nazarbayev International Airport",51.027035,71.467094,1165,AS,Kazakhstan,KZ,"Astana City",KZ-AST,AST,Astana,1,UACC,UACC,NQZ,,https://www.nn-airport.kz,https://en.wikipedia.org/wiki/Nursultan_Nazarbayev_International_Airport,,1275,2024-05-24T17:38:30+00:00
5639,RKPC,large_airport,"Jeju International Airport",33.512058,126.492548,118,AS,"South Korea",KR,"Jeju Teukbyeoljachi-do (Jeju Special Self-Governing Province)",KR-49,49,"Jeju City",1,RKPC,RKPC,CJU,,https://www.airport.co.kr/jejueng/index.do,https://en.wikipedia.org/wiki/Jeju_International_Airport,,51275,2024-04-29T19:29:00+00:00
5671,ROAH,large_airport,"Naha Airport / JASDF Naha Air Base",26.195801,127.646004,12,AS,Japan,JP,"Okinawa Prefecture",JP-47,47,Naha,1,ROAH,ROAH,OKA,,http://www.naha-airport.co.jp/,https://en.wikipedia.org/wiki/Naha_Airport,"那覇空港, Naha Kūkō?, AHA, Naha AFB",51150,2021-03-02T17:23:09+00:00
26819,WBSB,large_airport,"Brunei International Airport",4.9442,114.928001,73,AS,Brunei,BN,"Brunei-Muara District",BN-BM,BM,"Bandar Seri Begawan",1,WBSB,WBSB,BWN,,,https://en.wikipedia.org/wiki/Brunei_International_Airport,,1275,2022-06-15T00:41:11+00:00
26589,VMMC,large_airport,"Macau International Airport",22.149599,113.592003,20,AS,Macau,MO,"Nossa Senhora do Carmo (Taipa)",MO-CAR,CAR,"Nossa Senhora do Carmo",1,VMMC,VMMC,MFM,,http://www.macau-airport.gov.mo/en/index.php,https://en.wikipedia.org/wiki/Macau_International_Airport,澳門國際機場,1150,2022-11-16T15:39:47+00:00
26392,UTTT,large_airport,"Tashkent International Airport",41.257900238,69.2811965942,1417,AS,Uzbekistan,UZ,"Tashkent Region",UZ-TO,TO,Tashkent,1,UTTT,UTTT,TAS,,,https://en.wikipedia.org/wiki/Tashkent_International_Airport,,1475,2011-10-28T22:35:01+00:00
5166,OIIE,large_airport,"Imam Khomeini International Airport",35.416099548339844,51.152198791503906,3305,AS,Iran,IR,"Tehran Province",IR-23,23,Tehran,1,OIIE,OIIE,IKA,,http://www.ikia.ir/,https://en.wikipedia.org/wiki/Imam_Khomeini_International_Airport,Ahmadabad,1200,2008-06-13T14:30:04+00:00
5255,OPKC,large_airport,"Jinnah International Airport",24.9065,67.160797,100,AS,Pakistan,PK,Sindh,PK-SD,SD,Karachi,1,OPKC,OPKC,KHI,,,https://en.wikipedia.org/wiki/Jinnah_International_Airport,"OPQR, OPHQ, Drigh Road Airstrip, Quaid-E-Azam International Airport",1050,2021-11-22T13:56:19+00:00
28112,HK-0099,closed,"Hong Kong International Airport Kai Tak",22.320304,114.198074,28,AS,"Hong Kong",HK,Kowloon,HK-KLN,KLN,"Kowloon City",0,,,,,,https://en.wikipedia.org/wiki/Kai_Tak_Airport,"checkerboard, kowloon, Kaitak, RAF Kai Tak, HKG, VHHX",301,2025-02-25T14:48:48+00:00
6426,UAFM,large_airport,"Manas International Airport",43.0612983704,74.4776000977,2058,AS,Kyrgyzstan,KG,"Chuy Region",KG-C,C,Bishkek,1,UCFM,,FRU,,,https://en.wikipedia.org/wiki/Manas_International_Airport,"UAFM, Manas Air Force Base",1275,2014-09-18T21:21:31+00:00
26814,WBKK,medium_airport,"Kota Kinabalu International Airport",5.932743,116.049324,10,AS,Malaysia,MY,Sabah,MY-12,12,"Kota Kinabalu",1,WBKK,WBKK,BKI,,,https://en.wikipedia.org/wiki/Kota_Kinabalu_International_Airport,"Lapangan Terbang Antarabangsa Kota Kinabalu, Jesselton Airfield",750,2022-11-08T16:22:48+00:00
26629,VOTV,large_airport,"Thiruvananthapuram International Airport",8.48212,76.920097,15,AS,India,IN,Kerala,IN-KL,KL,Thiruvananthapuram,1,VOTV,VOTV,TRV,,,https://en.wikipedia.org/wiki/Trivandrum_International_Airport,"Thiruvananthapuram International Airport, Trivandrum Air Force Station",1050,2023-05-02T01:37:10+00:00
26875,WMKL,medium_airport,"Langkawi International Airport",6.329730033874512,99.72869873046875,29,AS,Malaysia,MY,Kedah,MY-02,02,Langkawi,1,WMKL,WMKL,LGK,,,https://en.wikipedia.org/wiki/Langkawi_International_Airport,,750,2008-08-17T17:08:57+00:00
27215,ZSAM,large_airport,"Xiamen Gaoqi International Airport",24.54400062561035,118.12799835205078,59,AS,China,CN,"Fujian Province",CN-35,35,Xiamen,1,ZSAM,ZSAM,XMN,,http://www.xiagc.com.cn/enweb/,https://en.wikipedia.org/wiki/Xiamen_Gaoqi_International_Airport,厦门高崎国际机场,51200,2009-01-30T18:22:16+00:00
27218,ZSHC,large_airport,"Hangzhou Xiaoshan International Airport",30.23609,120.428865,23,AS,China,CN,"Zhejiang Province",CN-33,33,Hangzhou,1,ZSHC,ZSHC,HGH,,http://www.hzairport.com/,https://en.wikipedia.org/wiki/Hangzhou_Xiaoshan_International_Airport,"Hang Zhou, 杭州萧山国际机场",1050,2021-12-21T14:45:08+00:00
27228,ZUCK,large_airport,"Chongqing Jiangbei International Airport",29.712254,106.651895,1365,AS,China,CN,"Chongqing Municipality",CN-50,50,Chongqing,1,ZUCK,ZUCK,CKG,,,https://en.wikipedia.org/wiki/Chongqing_Jiangbei_International_Airport,,1000,2021-12-21T16:53:19+00:00
26431,VAAH,medium_airport,"Sardar Vallabh Bhai Patel International Airport",23.0772,72.634697,189,AS,India,IN,Gujarat,IN-GJ,GJ,Ahmedabad,1,VAAH,VAAH,AMD,,https://www.adani.com/svpia-ahmedabad-airport,https://en.wikipedia.org/wiki/Sardar_Vallabhbhai_Patel_International_Airport,"Gandhinagar Air Force Station",750,2024-04-30T10:43:26+00:00
26588,VLVT,medium_airport,"Wattay International Airport",17.988300323500003,102.56300354,564,AS,Laos,LA,"Vientiane Prefecture",LA-VT,VT,Vientiane,1,VLVT,VLVT,VTE,,http://www.vientianeairport.com/,https://en.wikipedia.org/wiki/Wattay_International_Airport,,750,2010-09-02T14:55:21+00:00
5576,RJGG,large_airport,"Chubu Centrair International Airport",34.858398,136.804993,15,AS,Japan,JP,"Aichi Prefecture",JP-23,23,Tokoname,1,RJGG,RJGG,NGO,,https://www.centrair.jp/en/index.html,https://en.wikipedia.org/wiki/Ch%C5%ABbu_Centrair_International_Airport,,1012875,2024-04-29T19:26:36+00:00
5239,OMSJ,large_airport,"Sharjah International Airport",25.3286,55.5172,111,AS,"United Arab Emirates",AE,"Sharjah Emirate",AE-SH,SH,Sharjah,1,OMSJ,OMSJ,SHJ,,https://www.sharjahairport.ae/en/,https://en.wikipedia.org/wiki/Sharjah_International_Airport,,1050,2024-04-29T19:24:02+00:00
5687,RPLC,medium_airport,"Clark International Airport / Clark Air Base",15.186,120.559998,484,AS,Philippines,PH,"Pampanga Province",PH-PAM,PAM,Mabalacat,1,RPLC,RPLC,CRK,,http://www.clarkairport.com/,https://en.wikipedia.org/wiki/Clark_International_Airport,"Diosdado Macapagal International Airport, Paliparang Pandaigdig ng Diosdado Macapagal, Pangyatung Sulapawan ning Clark, Paliparang Pandaigdig ng Clark",750,2022-09-22T20:07:02+00:00
26583,VLLB,medium_airport,"Luang Phabang International Airport",19.897300720214844,102.16100311279297,955,AS,Laos,LA,"Louangphabang Province",LA-LP,LP,"Luang Phabang",1,VLLB,VLLB,LPQ,,,https://en.wikipedia.org/wiki/Luang_Prabang_International_Airport,,750,2008-12-19T20:12:01+00:00
5527,RCSS,medium_airport,"Taipei Songshan Airport",25.069401,121.552002,18,AS,Taiwan,TW,"Taipei City",TW-TPE,TPE,"Taipei (Songshan)",1,RCSS,RCSS,TSA,,http://www.tsa.gov.tw/,https://en.wikipedia.org/wiki/Taipei_Songshan_Airport,"Sungshan Airport, 台北松山機場, 臺北松山機場",750,2025-03-05T11:27:10+00:00
6446,UDYZ,large_airport,"Zvartnots International Airport",40.1473007202,44.3959007263,2838,AS,Armenia,AM,"Yerevan (capital district)",AM-ER,ER,Yerevan,1,UDYZ,UDYZ,EVN,,http://www.aia-zvartnots.aero/,https://en.wikipedia.org/wiki/Zvartnots_International_Airport,"UGEE, Erevan Airport, Erivan Airport, Аэропорт Звартноц, Аэропорт Ереван",1200,2013-04-14T07:18:30+00:00
27196,ZGKL,large_airport,"Guilin Liangjiang International Airport",25.219828,110.039553,570,AS,China,CN,"Guangxi Autonomous Region",CN-45,45,"Guilin (Lingui)",1,ZGKL,ZGKL,KWL,,,https://en.wikipedia.org/wiki/Guilin_Liangjiang_International_Airport,,1050,2021-12-30T17:13:54+00:00
5072,OAKB,medium_airport,"Kabul International Airport",34.565899,69.212303,5877,AS,Afghanistan,AF,"Kabul Province",AF-KAB,KAB,Kabul,1,OAKB,OAKB,KBL,,,https://en.wikipedia.org/wiki/Kabul_International_Airport,"Hamid Karzai International Airport, Khwaja Rawash Airport",750,2022-06-19T17:23:16+00:00
26563,VIJP,medium_airport,"Jaipur International Airport",26.8242,75.812202,1263,AS,India,IN,Rajasthan,IN-RJ,RJ,Jaipur,1,VIJP,VIJP,JAI,,https://www.jaipurairport.com/,https://en.wikipedia.org/wiki/Jaipur_International_Airport,,750,2018-09-15T03:40:23+00:00
26832,WIHH,medium_airport,"Halim Perdanakusuma International Airport",-6.266610145568848,106.89099884033203,84,AS,Indonesia,ID,"Jakarta Raya",ID-JK,JK,Jakarta,1,WIHH,WIHH,HLP,,http://www.angkasapura2.co.id/cabang/hlp/content.php?menu=8&page_id=1,https://en.wikipedia.org/wiki/Halim_Perdanakusuma_International_Airport,"WIIH,WIIX,WIID",575,2009-01-02T09:06:01+00:00
299629,WADL,medium_airport,"Lombok International Airport",-8.759962,116.278169,319,AS,Indonesia,ID,"Nusa Tenggara Barat (West Nusa Tenggara)",ID-NB,NB,"Mataram (Pujut, Lombok Tengah)",1,WADL,WADL,LOP,,http://www.lombok-airport.co.id/,https://en.wikipedia.org/wiki/Lombok_International_Airport,"Zainuddin Abdul Madjid, Praya",500,2025-02-21T23:53:28+00:00
27200,ZHHH,large_airport,"Wuhan Tianhe International Airport",30.774798,114.213723,113,AS,China,CN,"Hubei Province",CN-42,42,"Wuhan (Huangpi)",1,ZHHH,ZHHH,WUH,,http://www.whairport.com/,https://en.wikipedia.org/wiki/Wuhan_Tianhe_International_Airport,,1050,2022-10-17T10:17:39+00:00
26455,VAPO,medium_airport,"Pune Airport / Lohagaon Air Force Station",18.5821,73.919701,1942,AS,India,IN,Maharashtra,IN-MM,MM,Pune,1,VAPO,VAPO,PNQ,,,https://en.wikipedia.org/wiki/Pune_Airport,"Lohegaon Airport, Lohegaon Air Force Station",750,2021-10-15T17:29:52+00:00
5516,RCKH,large_airport,"Kaohsiung International Airport",22.577101,120.349998,31,AS,Taiwan,TW,"Kaohsiung City",TW-KHH,KHH,"Kaohsiung (Xiaogang)",1,RCKH,RCKH,KHH,,http://www.kia.gov.tw/english/e_index.asp,https://en.wikipedia.org/wiki/Kaohsiung_International_Airport,"Siaogang International Airport, 高雄國際航空站, 小港國際機場",1013175,2020-12-16T15:14:44+00:00
4512,LTAF,medium_airport,"Adana Şakirpaşa Airport",36.982201,35.280399,65,AS,Turkey,TR,"Adana Province",TR-01,01,Seyhan,1,LTAF,LTAF,ADA,,,https://en.wikipedia.org/wiki/Adana_%C5%9Eakirpa%C5%9Fa_Airport,"Şakirpaşa, Sakirpasa",750,2021-11-20T16:12:09+00:00
26879,WMSA,medium_airport,"Sultan Abdul Aziz Shah International Airport",3.130579948425293,101.54900360107422,90,AS,Malaysia,MY,Selangor,MY-10,10,Subang,1,WMSA,WMSA,SZB,,,https://en.wikipedia.org/wiki/Sultan_Abdul_Aziz_Shah_Airport,,750,2008-08-17T17:09:00+00:00
26745,WAAA,large_airport,"Hasanuddin International Airport",-5.06163,119.554001,47,AS,Indonesia,ID,"Sulawesi Selatan (South Sulawesi)",ID-SN,SN,"Ujung Pandang",1,WAAA,WAAA,UPG,,,https://en.wikipedia.org/wiki/Hasanuddin_International_Airport,,1275,2022-09-19T16:31:03+00:00
5168,OIII,large_airport,"Mehrabad International Airport",35.68920135498047,51.31340026855469,3962,AS,Iran,IR,"Tehran Province",IR-23,23,Tehran,1,OIII,OIII,THR,,,https://en.wikipedia.org/wiki/Mehrabad_International_Airport,,1200,2008-06-13T14:30:04+00:00
4523,LTAU,medium_airport,"Kayseri Erkilet Airport",38.770401001,35.4953994751,3463,AS,Turkey,TR,"Kayseri Province",TR-38,38,Kayseri,1,LTAU,LTAU,ASR,,,https://en.wikipedia.org/wiki/Erkilet_Airport,,750,2010-12-14T17:31:24+00:00
26808,WBGG,medium_airport,"Kuching International Airport",1.487364,110.352859,89,AS,Malaysia,MY,Sarawak,MY-13,13,Kuching,1,WBGG,WBGG,KCH,,,https://en.wikipedia.org/wiki/Kuching_International_Airport,,750,2022-08-26T09:54:27+00:00
5274,OPRN,small_airport,"PAF Base Nur Khan",33.616699,73.099197,1668,AS,Pakistan,PK,Punjab,PK-PB,PB,Rawalpindi,0,OPRN,,,,,https://en.wikipedia.org/wiki/PAF_Base_Nur_Khan,"ISB, Chaklala Air Base, Islamabad International Airport, Islamabad, Benazir Bhutto International Airport, Pakistan Air Force Base Nur Khan",150,2022-11-02T09:22:45+00:00
5566,RJFK,large_airport,"Kagoshima Airport",31.8034,130.718994,906,AS,Japan,JP,"Kagoshima Prefecture",JP-46,46,Kagoshima,1,RJFK,RJFK,KOJ,,https://www.koj-ab.co.jp/en/,https://en.wikipedia.org/wiki/Kagoshima_Airport,,1150,2024-04-29T19:26:05+00:00
5303,OSDI,large_airport,"Damascus International Airport",33.4114990234375,36.51559829711914,2020,AS,Syria,SY,"Damascus Governorate",SY-DI,DI,Damascus,1,OSDI,OSDI,DAM,,,https://en.wikipedia.org/wiki/Damascus_International_Airport,"مطار دمشق الدولي",1050,2009-02-04T17:17:48+00:00
27242,ZYTL,large_airport,"Dalian Zhoushuizi International Airport",38.965719,121.538477,107,AS,China,CN,"Liaoning Province",CN-21,21,"Dalian (Ganjingzi)",1,ZYTL,ZYTL,DLC,,,https://en.wikipedia.org/wiki/Dalian_Zhoushuizi_International_Airport,"Dalian Air Base",1000,2024-10-17T12:04:16+00:00
27221,ZSNJ,large_airport,"Nanjing Lukou International Airport",31.735032,118.865949,49,AS,China,CN,"Jiangsu Province",CN-32,32,Nanjing,1,ZSNJ,ZSNJ,NKG,,,https://en.wikipedia.org/wiki/Nanjing_Lukou_International_Airport,,1000,2025-01-05T23:59:10+00:00
27224,CN-0164,closed,"Qingdao Liuting International Airport",36.265837,120.37459,33,AS,China,CN,"Shandong Province",CN-37,37,"Qingdao (Chengyang)",0,,,,,,https://en.wikipedia.org/wiki/Qingdao_Liuting_International_Airport,"ZSQD, TAO",800,2024-10-17T13:50:53+00:00
5087,OEDF,large_airport,"King Fahd International Airport",26.471201,49.797901,72,AS,"Saudi Arabia",SA,"Ash Sharqiyah Region",SA-04,04,"Ad Dammam",1,OEDF,OEDF,DMM,,https://kfia.gov.sa/,https://en.wikipedia.org/wiki/King_Fahd_International_Airport,,1675,2024-04-29T19:21:51+00:00
5257,OPLA,large_airport,"Allama Iqbal International Airport",31.521601,74.403603,712,AS,Pakistan,PK,Punjab,PK-PB,PB,Lahore,1,OPLA,OPLA,LHE,,,https://en.wikipedia.org/wiki/Allama_Iqbal_International_Airport,OPLR,1050,2022-02-11T15:40:13+00:00
300320,OMDW,large_airport,"Al Maktoum International Airport",24.896356,55.161389,114,AS,"United Arab Emirates",AE,"Dubai Emirate",AE-DU,DU,"Jebel Ali",1,OMDW,OMDW,DWC,,https://www.dubaiairports.ae/,https://en.wikipedia.org/wiki/Al_Maktoum_International_Airport,,1000,2021-01-11T04:49:35+00:00
26603,VOBG,medium_airport,"HAL Airport",12.95,77.668198,2912,AS,India,IN,Karnataka,IN-KA,KA,Bangalore,0,VOBG,,,,,https://en.wikipedia.org/wiki/HAL_Bangalore_International_Airport,"Bengaluru, Hindustan Airport, HAL Airport, Hindustan Aeronautics",750,2021-07-31T16:09:35+00:00
26705,VVPQ,medium_airport,"Phu Quoc International Airport",10.1698,103.9931,37,AS,Vietnam,VN,"Southwest Region",VN-SW,SW,"Phu Quoc Island",1,VVPQ,VVPQ,PQC,,,https://en.wikipedia.org/wiki/Phu_Quoc_International_Airport,,750,2016-01-08T21:54:49+00:00
26545,VEBN,medium_airport,"Lal Bahadur Shastri Airport",25.452129,82.861805,266,AS,India,IN,"Uttar Pradesh",IN-UP,UP,Varanasi,1,VEBN,VEBN,VNS,,https://www.aai.aero/en/airports/varanasi,https://en.wikipedia.org/wiki/Lal_Bahadur_Shastri_Airport,"VIBN, Babatpur Airport, Varanasi Airport",750,2021-05-07T16:59:18+00:00
27192,ZBTJ,large_airport,"Tianjin Binhai International Airport",39.124401092499994,117.346000671,10,AS,China,CN,"Tianjin Municipality",CN-12,12,Tianjin,1,ZBTJ,ZBTJ,TSN,,,https://en.wikipedia.org/wiki/Tianjin_Binhai_International_Airport,,1050,2010-08-29T23:10:48+00:00
330820,ZBAD,large_airport,"Beijing Daxing International Airport",39.509945,116.41092,98,AS,China,CN,"Beijing Municipality",CN-11,11,Beijing,1,ZBAD,ZBAD,PKX,,,https://en.wikipedia.org/wiki/Beijing_Daxing_International_Airport,,1000,2021-09-30T17:42:52+00:00
27238,ZYHB,large_airport,"Harbin Taiping International Airport",45.623402,126.25,457,AS,China,CN,"Heilongjiang Province",CN-23,23,Harbin,1,ZYHB,ZYHB,HRB,,,https://en.wikipedia.org/wiki/Harbin_Taiping_International_Airport,,1000,2021-09-27T22:59:15+00:00
5590,RJOA,medium_airport,"Hiroshima Airport",34.4361,132.919006,1088,AS,Japan,JP,"Hiroshima Prefecture",JP-34,34,Hiroshima,1,RJOA,RJOA,HIJ,,,https://en.wikipedia.org/wiki/Hiroshima_Airport,広島空港,750,2022-11-05T00:52:18+00:00
6451,UGKO,medium_airport,"David the Builder Kutaisi International Airport",42.176768,42.482393,223,AS,Georgia,GE,Imereti,GE-IM,IM,Kopitnari,1,UGKO,UGKO,KUT,,https://kutaisi.aero,https://en.wikipedia.org/wiki/David_the_Builder_Kutaisi_International_Airport,Kopitnari,750,2024-01-10T17:15:21+00:00
26839,WIMK,medium_airport,"Soewondo Air Force Base",3.558425,98.672275,114,AS,Indonesia,ID,"Sumatera Utara (North Sumatra)",ID-SU,SU,Medan,0,WIMK,WIMK,MES,,,https://en.wikipedia.org/wiki/Soewondo_Air_Force_Base,"Polonia International Airport, WIMM",750,2022-10-01T23:15:12+00:00
5101,OEMA,large_airport,"Prince Mohammad Bin Abdulaziz Airport",24.5534,39.705101,2151,AS,"Saudi Arabia",SA,"Al Madinah Region",SA-03,03,Medina,1,OEMA,OEMA,MED,,http://www.tibahairports.com/en-EN/Pages/Main.aspx,https://en.wikipedia.org/wiki/Prince_Mohammad_Bin_Abdulaziz_Airport,Medinah,1475,2022-03-18T16:38:16+00:00
26727,VYMD,large_airport,"Mandalay International Airport",21.702199935913086,95.97789764404297,300,AS,Myanmar,MM,"Mandalay Region",MM-04,04,Mandalay,1,VYMD,VYMD,MDL,,,https://en.wikipedia.org/wiki/Mandalay_International_Airport,,1050,2009-07-04T07:48:06+00:00
309577,WIMM,large_airport,"Kualanamu International Airport",3.637847,98.870566,23,AS,Indonesia,ID,"Sumatera Utara (North Sumatra)",ID-SU,SU,Beringin,1,WIMM,WIMM,KNO,,http://www.kualanamu-airport.co.id/,https://en.wikipedia.org/wiki/Kualanamu_International_Airport,Medan,1000,2025-03-13T08:28:01+00:00
5673,RODN,large_airport,"Kadena Air Base",26.351667,127.769444,143,AS,Japan,JP,"Okinawa Prefecture",JP-47,47,Okinawa,0,RODN,RODN,DNA,,,https://en.wikipedia.org/wiki/Kadena_Air_Base,,850,2025-03-16T17:37:54+00:00
26540,VIAR,medium_airport,"Sri Guru Ram Dass Jee International Airport",31.7096,74.797302,756,AS,India,IN,Punjab,IN-PB,PB,Amritsar,1,VIAR,VIAR,ATQ,,http://www.aai.aero/allAirports/amritsar_generalinfo.jsp,https://en.wikipedia.org/wiki/Sri_Guru_Ram_Dass_Jee_International_Airport,"Amritsar Air Force Station",750,2021-11-22T13:56:55+00:00
4553,LTCG,medium_airport,"Trabzon International Airport",40.995098,39.7897,104,AS,Turkey,TR,"Trabzon Province",TR-61,61,Trabzon,1,LTCG,LTCG,TZX,,,https://en.wikipedia.org/wiki/Trabzon_Airport,,750,2021-12-21T21:10:41+00:00
27212,ZMUB,medium_airport,"Buyant-Ukhaa International Airport",47.843102,106.766998,4364,AS,Mongolia,MN,"Ulaanbaatar (provincial municipality)",MN-1,1,Ulaanbaatar,0,ZMUB,ZMUB,ULN,,,https://en.wikipedia.org/wiki/Buyant-Ukhaa_International_Airport,"Chinggis Khaan International",750,2021-08-21T16:19:19+00:00
5581,RJNA,medium_airport,"Nagoya Airport / JASDF Komaki Air Base",35.255759,136.924095,52,AS,Japan,JP,"Aichi Prefecture",JP-23,23,Nagoya,1,RJNA,RJNA,NKM,,,https://en.wikipedia.org/wiki/Nagoya_Airfield,"Komaki Airport, Nagoya Airfield",750,2021-04-21T18:35:14+00:00
5073,OAKN,medium_airport,"Ahmad Shah Baba International Airport / Kandahar Airfield",31.5058,65.847801,3337,AS,Afghanistan,AF,"Kandahar Province",AF-KAN,KAN,Khvoshab,1,OAKN,OAKN,KDH,,,https://en.wikipedia.org/wiki/Kandahar_International_Airport,"Kandahar International Airport",500,2021-10-29T21:37:36+00:00
5197,OISS,large_airport,"Shiraz Shahid Dastghaib International Airport",29.5392,52.589802,4927,AS,Iran,IR,"Fars Province",IR-07,07,Shiraz,1,OISS,OISS,SYZ,,http://shirazairport.ir/,https://en.wikipedia.org/wiki/Shiraz_International_Airport,,1200,2022-11-20T21:49:09+00:00
5214,OJAQ,medium_airport,"Aqaba King Hussein International Airport",29.611600875854492,35.01810073852539,175,AS,Jordan,JO,"Al 'Aqaba Governorate",JO-AQ,AQ,Aqaba,1,OJAQ,OJAQ,AQJ,,,https://en.wikipedia.org/wiki/Aqaba_Airport,,750,2008-12-19T20:10:42+00:00
26676,VTSS,medium_airport,"Hat Yai International Airport",6.93320989609,100.392997742,90,AS,Thailand,TH,"Songkhla Province",TH-90,90,"Hat Yai",1,VTSS,VTSS,HDY,,,https://en.wikipedia.org/wiki/Hat_Yai_International_Airport,,750,2010-09-02T20:40:57+00:00
5741,RPVK,medium_airport,"Kalibo International Airport",11.679400444,122.375999451,14,AS,Philippines,PH,"Aklan Province",PH-AKL,AKL,Kalibo,1,RPVK,RPVK,KLO,,,https://en.wikipedia.org/wiki/Kalibo_International_Airport,,750,2010-09-08T22:32:54+00:00
26770,WAMM,medium_airport,"Sam Ratulangi Airport",1.549266,124.926319,264,AS,Indonesia,ID,"Sulawesi Utara (North Sulawesi)",ID-SA,SA,Manado,1,WAMM,WAMM,MDC,,,https://en.wikipedia.org/wiki/Sam_Ratulangi_Airport,,750,2025-02-21T20:52:49+00:00
26645,VTBU,medium_airport,"U-Tapao International Airport",12.679900169372559,101.00499725341797,42,AS,Thailand,TH,"Rayong Province",TH-21,21,Rayong,1,VTBU,VTBU,UTP,,http://www.utapao.com/,https://en.wikipedia.org/wiki/U-Tapao_International_Airport,"Utapao, U-Taphao, U-Tapao Royal Thai Navy Airfield",750,2009-03-04T17:46:31+00:00
31828,ZPLJ,medium_airport,"Lijiang Sanyi International Airport",26.68,100.246002,7359,AS,China,CN,"Yunnan Province",CN-53,53,"Lijiang (Gucheng)",1,ZPLJ,ZPLJ,LJG,,,https://en.wikipedia.org/wiki/Lijiang_Sanyi_Airport,"Yunlong Air Base",500,2024-07-08T07:46:46+00:00
27236,ZWWW,large_airport,"Ürümqi Diwopu International Airport",43.907100677490234,87.47419738769531,2125,AS,China,CN,"Xinjiang Autonomous Region",CN-65,65,Ürümqi,1,ZWWW,ZWWW,URC,,,https://en.wikipedia.org/wiki/%C3%9Cr%C3%BCmqi_Diwopu_International_Airport,,1000,2009-04-16T22:29:21+00:00
26632,VQPR,medium_airport,"Paro International Airport",27.4032,89.424599,7364,AS,Bhutan,BT,"Paro District",BT-11,11,Paro,1,VQPR,VQPR,PBH,,https://www.paroairport.com/,https://en.wikipedia.org/wiki/Paro_Airport,"སྤ་རོ་གནམ་ཐང༌།, paro gnam thang",750,2024-05-09T15:57:02+00:00
30979,LCEN,medium_airport,"Nicosia (Lefkoşa) Ercan International Airport",35.152337,33.506584,404,AS,Cyprus,CY,"Nicosia District",CY-02,02,"Tymbou (Kirklar)",1,LCEN,LCEN,ECN,,,https://en.wikipedia.org/wiki/Ercan_International_Airport,Tymvou,750,2022-12-19T09:24:16+00:00
26378,USSS,large_airport,"Koltsovo Airport",56.743099212646,60.802700042725,764,AS,Russia,RU,"Sverdlovsk Oblast",RU-SVE,SVE,Yekaterinburg,1,USSS,USSS,SVX,,http://www.koltsovo.ru/en/,https://en.wikipedia.org/wiki/Koltsovo_Airport,,1150,2015-07-26T09:12:21+00:00
27219,ZSJN,large_airport,"Jinan Yaoqiang International Airport",36.857201,117.216003,76,AS,China,CN,"Shandong Province",CN-37,37,"Jinan (Licheng)",1,ZSJN,ZSJN,TNA,,,https://en.wikipedia.org/wiki/Jinan_Yaoqiang_International_Airport,,1050,2024-10-17T12:54:00+00:00
27199,ZHCC,large_airport,"Zhengzhou Xinzheng International Airport",34.526497,113.849165,495,AS,China,CN,"Henan Province",CN-41,41,Zhengzhou,1,ZHCC,ZHCC,CGO,,,https://en.wikipedia.org/wiki/Zhengzhou_Xinzheng_International_Airport,"Xinzheng Airport",1050,2021-12-20T16:44:55+00:00
27203,ZKPY,large_airport,"Pyongyang Sunan International Airport",39.224098,125.669998,117,AS,"North Korea",KP,"Pyongyang (capital city)",KP-01,01,Pyongyang,1,ZKPY,ZKPY,FNJ,,,https://en.wikipedia.org/wiki/Pyongyang_Sunan_International_Airport,,1000,2024-11-03T13:54:32+00:00
27202,ZJSY,large_airport,"Sanya Phoenix International Airport",18.3029,109.412003,92,AS,China,CN,"Hainan Province",CN-46,46,"Sanya (Tianya)",1,ZJSY,ZJSY,SYX,,,https://en.wikipedia.org/wiki/Sanya_Phoenix_International_Airport,,1000,2022-11-10T14:10:26+00:00
5629,RJTY,large_airport,"Yokota Air Base",35.748501,139.348007,463,AS,Japan,JP,"Tōkyō Prefecture",JP-13,13,Fussa,0,RJTY,,OKO,,,https://en.wikipedia.org/wiki/Yokota_Air_Base,,850,2022-08-29T13:44:14+00:00
5736,RPVE,medium_airport,"Godofredo P. Ramos Airport",11.9245,121.954002,7,AS,Philippines,PH,"Aklan Province",PH-AKL,AKL,Caticlan,1,RPVE,RPVE,MPH,,,https://en.wikipedia.org/wiki/Godofredo_P._Ramos_Airport,"Godofredo P. Ramos Airport",750,2024-04-06T17:04:01+00:00
5686,RPLB,medium_airport,"Subic Bay International Airport / Naval Air Station Cubi Point",14.7944,120.271004,64,AS,Philippines,PH,"Zambales Province",PH-ZMB,ZMB,Olongapo,1,RPLB,RPLB,SFS,,,https://en.wikipedia.org/wiki/Subic_Bay_International_Airport,"Paliparang Pandaigdig ng Look ng Subic, Naval Air Station Cubi Point",750,2020-10-15T11:15:53+00:00
5744,RPVP,medium_airport,"Puerto Princesa International Airport / PAF Antonio Bautista Air Base",9.74212,118.759003,71,AS,Philippines,PH,"Palawan Province",PH-PLW,PLW,"Puerto Princesa",1,RPVP,RPVP,PPS,,,https://en.wikipedia.org/wiki/Puerto_Princesa_Airport,,750,2023-12-03T21:46:37+00:00
26886,WSSL,medium_airport,"Seletar Airport",1.41555,103.86673,36,AS,Singapore,SG,"North East",SG-02,02,Seletar,1,WSSL,WSSL,XSP,,,https://en.wikipedia.org/wiki/Seletar_Airport,,750,2022-06-20T08:00:34+00:00
26438,VABO,medium_airport,"Vadodara Airport",22.336201,73.226303,129,AS,India,IN,Gujarat,IN-GJ,GJ,Vadodara,1,VABO,VABO,BDQ,,http://aai.aero/allAirports/vadodara_generalinfo.jsp,https://en.wikipedia.org/wiki/Vadodara_Airport,"Civil Airport Harni",750,2018-07-14T01:52:53+00:00
5289,ORBI,large_airport,"Baghdad International Airport / New Al Muthana Air Base",33.262501,44.2346,114,AS,Iraq,IQ,"Baghdad Governorate",IQ-BG,BG,Baghdad,1,ORBI,ORBI,BGW,,,https://en.wikipedia.org/wiki/Baghdad_International_Airport,"SDA, BIAP, VBC, ORBS, Camp Sather, Saddam International Airport, Al Anbar Airport",1150,2021-03-05T13:25:34+00:00
26755,WAJJ,large_airport,"Dortheys Hiyo Eluay International Airport",-2.579627,140.519857,289,AS,Indonesia,ID,Papua,ID-PA,PA,Sentani,1,WAJJ,WAJJ,DJJ,,https://sentani-airport.co.id/en,https://en.wikipedia.org/wiki/Dortheys_Hiyo_Eluay_International_Airport,"Bandar Udara Internasional Dortheys Hiyo Eluay, Sentani International Airport, Hollandia, Jayapura",1025,2022-10-17T11:05:34+00:00
6462,UHWW,large_airport,"Vladivostok International Airport",43.396256,132.148155,59,AS,Russia,RU,"Primorsky Krai",RU-PRI,PRI,Artyom,1,UHWW,UHWW,VVO,,http://www.vladivostokavia.ru/en/airport/,https://en.wikipedia.org/wiki/Vladivostok_International_Airport,"Vladivostok-Knevichi Airport",1000,2025-02-24T22:49:04+00:00
4415,IL-0021,closed,"Eilat Airport",29.559945,34.959612,42,AS,Israel,IL,"Southern District",IL-D,D,Eilat,0,,,,,,https://en.wikipedia.org/wiki/Eilat_Airport,"J. Hozman, LLET, ETH",875,2025-02-25T14:38:03+00:00
26494,VEBS,medium_airport,"Biju Patnaik Airport",20.244400024399997,85.8178024292,138,AS,India,IN,Odisha,IN-OR,OR,Bhubaneswar,1,VEBS,VEBS,BBI,,http://aai.aero/allAirports/bhubaneshwar_generalinfo.jsp,https://en.wikipedia.org/wiki/Biju_Patnaik_Airport,,750,2010-09-07T17:37:14+00:00
26693,VVCR,medium_airport,"Cam Ranh International Airport / Cam Ranh Air Base",11.9982,109.219002,40,AS,Vietnam,VN,"South Central Coast Region",VN-SCC,SCC,"Cam Ranh",1,VVCR,VVCR,CXR,,,https://en.wikipedia.org/wiki/Cam_Ranh_International_Airport,,750,2021-01-10T21:38:30+00:00
26702,VVPB,medium_airport,"Phu Bai International Airport",16.400628,107.703094,48,AS,Vietnam,VN,"North Central Region",VN-NC,NC,Huế,1,VVPB,VVPB,HUI,,,https://en.wikipedia.org/wiki/Phu_Bai_International_Airport,Phubai,750,2022-09-23T23:36:17+00:00
26570,VILK,medium_airport,"Chaudhary Charan Singh International Airport",26.7605991364,80.8892974854,410,AS,India,IN,"Uttar Pradesh",IN-UP,UP,Lucknow,1,VILK,VILK,LKO,,http://aai.aero/allAirports/lucknow_generalinfo.jsp,https://en.wikipedia.org/wiki/Amausi_Airport,"Amausi International Airport",750,2010-09-08T18:00:49+00:00
26617,VOML,medium_airport,"Mangalore International Airport",12.9612998962,74.8900985718,337,AS,India,IN,Karnataka,IN-KA,KA,Mangalore,1,VOML,VOML,IXE,,,https://en.wikipedia.org/wiki/Mangalore_International_Airport,"Bajpe Airport",750,2010-09-02T22:02:00+00:00
26678,VTUD,medium_airport,"Udon Thani Airport",17.386400222800003,102.788002014,579,AS,Thailand,TH,"Udon Thani Province",TH-41,41,"Udon Thani",1,VTUD,VTUD,UTH,,http://www.udonthaniairport.com/,https://en.wikipedia.org/wiki/Udon_Thani_International_Airport,,750,2010-09-02T20:43:32+00:00
26881,WPDL,medium_airport,"Presidente Nicolau Lobato International Airport",-8.546562,125.524507,154,AS,Timor-Leste,TL,Dili,TL-DI,DI,Dili,1,WPDL,WPDL,DIL,,,https://en.wikipedia.org/wiki/Presidente_Nicolau_Lobato_International_Airport,"Komoro, Comoro",500,2022-11-04T10:08:33+00:00
26790,WARS,medium_airport,"Achmad Yani Airport",-6.970732,110.373244,10,AS,Indonesia,ID,"Jawa Tengah (Central Java)",ID-JT,JT,Semarang,1,WAHS,,SRG,,https://www.ahmadyani-airport.com/id,https://en.wikipedia.org/wiki/Achmad_Yani_Airport,"WIIS, WARS",500,2022-10-01T23:16:48+00:00
26788,WARQ,medium_airport,"Adisumarmo Airport",-7.516044,110.757492,421,AS,Indonesia,ID,"Jawa Tengah (Central Java)",ID-JT,JT,Surakarta,1,WAHQ,,SOC,,https://adisumarmo-airport.com/en,https://en.wikipedia.org/wiki/Adisumarmo_Airport,"WRSQ, WARQ, Adi Soemarmo, Adi Sumarmo",500,2025-03-03T10:42:21+00:00
26380,UTAA,large_airport,"Ashgabat International Airport",37.986801,58.361,692,AS,Turkmenistan,TM,"Ashgabat (city)",TM-S,S,Ashgabat,1,UTAA,UTAA,ASB,,,https://en.wikipedia.org/wiki/Ashgabat_International_Airport,"Saparmurat Turkmenbashy International Airport",1050,2022-09-21T21:38:52+00:00
26760,WALL,large_airport,"Sultan Aji Muhammad Sulaiman Sepinggan International Airport",-1.268342,116.89452,12,AS,Indonesia,ID,"Kalimantan Timur (East Kalimantan)",ID-KI,KI,Balikpapan,1,WALL,WALL,BPN,,http://sepinggan-airport.com/,https://en.wikipedia.org/wiki/Sultan_Aji_Muhamad_Sulaiman_Airport,"WRLL, Balikpapan Airport, Sepinggan Airport, Sepinggang Airfield",1000,2025-02-21T23:26:10+00:00
27220,ZSNB,large_airport,"Ningbo Lishe International Airport",29.82670021057129,121.46199798583984,13,AS,China,CN,"Zhejiang Province",CN-33,33,Ningbo,1,ZSNB,ZSNB,NGB,,,https://en.wikipedia.org/wiki/Ningbo_Lishe_International_Airport,,1000,2009-04-16T22:12:27+00:00
26824,WICC,medium_airport,"Husein Sastranegara International Airport",-6.90063,107.575996,2436,AS,Indonesia,ID,"Jawa Barat (West Java)",ID-JB,JB,Bandung,1,WICC,WICC,BDO,,,https://en.wikipedia.org/wiki/Husein_Sastranegara_International_Airport,WIIB,750,2022-10-01T23:17:15+00:00
26828,WIDD,medium_airport,"Hang Nadim International Airport",1.12103,104.119003,126,AS,Indonesia,ID,"Kepulauan Riau (Riau Islands)",ID-KR,KR,Batam,1,WIDD,WIDD,BTH,,,https://en.wikipedia.org/wiki/Hang_Nadim_Airport,WIKB,750,2024-08-21T13:50:29+00:00
26873,WMKJ,medium_airport,"Senai International Airport",1.64131,103.669998,135,AS,Malaysia,MY,Johor,MY-01,01,"Johor Bahru",1,WMKJ,WMKJ,JHB,,,https://en.wikipedia.org/wiki/Senai_International_Airport,"Sultan Ismail Airport",750,2017-08-14T22:25:14+00:00
26855,WIPP,medium_airport,"Sultan Mahmud Badaruddin II Airport",-2.897653,104.698147,49,AS,Indonesia,ID,"Sumatera Selatan (South Sumatra)",ID-SS,SS,Palembang,1,WIPP,WIPP,PLM,,,https://en.wikipedia.org/wiki/Sultan_Mahmud_Badaruddin_II_Airport,,750,2021-10-12T10:14:52+00:00
5318,OYSN,medium_airport,"Sanaa International Airport",15.4763,44.2197,7216,AS,Yemen,YE,"Sanaa Municipality",YE-SA,SA,Sanaa,1,OYSN,OYSN,SAH,,,https://en.wikipedia.org/wiki/Sanaa_International_Airport,,750,2025-03-21T06:16:08+00:00
5070,OAIX,medium_airport,"Bagram Airfield",34.946098,69.264999,4895,AS,Afghanistan,AF,"Parwan Province",AF-PAR,PAR,Bagram,0,OAIX,OAIX,OAI,,,https://en.wikipedia.org/wiki/Bagram_Airfield,"Bagram Air Base",250,2021-02-20T16:15:53+00:00
28150,VNLK,small_airport,"Lukla Airport",27.686768,86.729479,9380,AS,Nepal,NP,"Koshi Province",NP-P1,P1,Lukla,1,VNLK,VNLK,LUA,,https://lukla.caanepal.gov.np/,https://en.wikipedia.org/wiki/Tenzing-Hillary_Airport,"Mount Everest, Tenzing Norgay, Sir Edmund Hillary",150,2024-07-04T01:22:43+00:00
5697,RPMD,large_airport,"Francisco Bangoy International Airport",7.12552,125.646004,96,AS,Philippines,PH,"Davao City",PH-DVO,DVO,Davao,1,RPMD,RPMD,DVO,,,https://en.wikipedia.org/wiki/Francisco_Bangoy_International_Airport,"Davao International Airport",1275,2025-03-04T05:24:11+00:00
5183,OIMM,large_airport,"Mashhad International Airport",36.235198974609375,59.64099884033203,3263,AS,Iran,IR,"Razavi Khorasan Province",IR-09,09,Mashhad,1,OIMM,OIMM,MHD,,,https://en.wikipedia.org/wiki/Mashhad_International_Airport,"Shahid Hashemi Nejad Airport",1200,2009-03-25T08:12:12+00:00
27243,ZYTX,large_airport,"Shenyang Taoxian International Airport",41.639801,123.483002,198,AS,China,CN,"Liaoning Province",CN-21,21,"Hunnan, Shenyang",1,ZYTX,ZYTX,SHE,,,https://en.wikipedia.org/wiki/Shenyang_Taoxian_International_Airport,,1050,2021-01-21T14:06:30+00:00
26404,UWKD,large_airport,"Kazan International Airport",55.606201,49.278702,411,AS,Russia,RU,"Republic of Tatarstan",RU-TA,TA,Kazan,1,UWKD,UWKD,KZN,,http://www.kazan.aero/en/,https://en.wikipedia.org/wiki/Kazan_International_Airport,"УВКД, Казань",1000,2025-02-21T08:21:26+00:00
27204,ZLLL,large_airport,"Lanzhou Zhongchuan International Airport",36.515202,103.620003,6388,AS,China,CN,"Gansu Province",CN-62,62,"Lanzhou (Yongdeng)",1,ZLLL,ZLLL,LHW,,http://lzzcairport.com/Home/Index,https://en.wikipedia.org/wiki/Lanzhou_Airport,"ZGC, Datong Air Base, 兰州中川国际机场",1000,2022-08-03T11:15:21+00:00
5747,PH-0683,closed,"Tagbilaran Airport",9.665442,123.853533,38,AS,Philippines,PH,"Bohol Province",PH-BOH,BOH,"Tagbilaran City",0,,,,,,https://en.wikipedia.org/wiki/Tagbilaran_Airport,"RPVT, TAG",800,2025-02-25T14:38:07+00:00
26862,WITT,medium_airport,"Sultan Iskandar Muda International Airport",5.522872024010001,95.42063713070002,65,AS,Indonesia,ID,Aceh,ID-AC,AC,"Banda Aceh",1,WITT,WITT,BTJ,,,https://en.wikipedia.org/wiki/Sultan_Iskandar_Muda_International_Airport,WIAB,750,2013-09-06T04:22:40+00:00
26653,VTCT,medium_airport,"Mae Fah Luang - Chiang Rai International Airport",19.952299,99.882896,1280,AS,Thailand,TH,"Chiang Rai Province",TH-57,57,"Chiang Rai",1,VTCT,VTCT,CEI,,,https://en.wikipedia.org/wiki/Chiang_Rai_International_Airport,,750,2021-06-02T17:32:22+00:00
26607,VOCB,medium_airport,"Coimbatore International Airport",11.029999733,77.0434036255,1324,AS,India,IN,"Tamil Nadu",IN-TN,TN,Coimbatore,1,VOCB,VOCB,CJB,,http://www.airportsindia.org.in/allAirports/coimbatore_generalinfo.jsp,https://en.wikipedia.org/wiki/Coimbatore_Airport,,750,2010-09-07T19:06:09+00:00
26385,UTDD,medium_airport,"Dushanbe International Airport",38.543746,68.822977,2575,AS,Tajikistan,TJ,Dushanbe,TJ-DU,DU,Dushanbe,1,UTDD,UTDD,DYU,,,https://en.wikipedia.org/wiki/Dushanbe_International_Airport,,750,2025-03-20T01:31:21+00:00
26868,WMKC,medium_airport,"Sultan Ismail Petra Airport",6.1668500900268555,102.29299926757812,16,AS,Malaysia,MY,Kelantan,MY-03,03,"Kota Baharu",1,WMKC,WMKC,KBR,,,https://en.wikipedia.org/wiki/Sultan_Ismail_Petra_Airport,,750,2008-08-17T17:08:57+00:00
31867,ZULS,medium_airport,"Lhasa Gonggar Airport",29.298001,90.911951,11713,AS,China,CN,"Tibet Autonomous Region",CN-54,54,"Shannan (Gonggar)",1,ZULS,ZULS,LXA,,,https://en.wikipedia.org/wiki/Lhasa_Gonggar_Airport,,750,2022-09-20T16:29:53+00:00
26665,VTSB,medium_airport,"Surat Thani Airport",9.13259983063,99.135597229,20,AS,Thailand,TH,"Surat Thani Province",TH-84,84,"Surat Thani",1,VTSB,VTSB,URT,,,https://en.wikipedia.org/wiki/Surat_Thani_Airport,,750,2010-09-02T14:54:23+00:00
26523,VEVZ,medium_airport,"Visakhapatnam Airport",17.723506,83.227729,15,AS,India,IN,"Andhra Pradesh",IN-AP,AP,Visakhapatnam,1,VOVZ,,VTZ,,http://www.vizagairport.in/,https://en.wikipedia.org/wiki/Visakhapatnam_Airport,"VEVZ, Visakhapatnam, Vizag",500,2023-05-02T01:37:46+00:00
5309,OTBH,medium_airport,"Al Udeid Air Base",25.1173000336,51.3149986267,130,AS,Qatar,QA,"Al Rayyan Municipality",QA-RA,RA,"Ar Rayyan",0,OTBH,OTBH,XJD,,,https://en.wikipedia.org/wiki/Al_Udeid_Air_Base,,250,2013-06-27T19:10:17+00:00
26610,VOCL,medium_airport,"Calicut International Airport",11.1368,75.955299,342,AS,India,IN,Kerala,IN-KL,KL,Calicut,1,VOCL,VOCL,CCJ,,,https://en.wikipedia.org/wiki/Calicut_International_Airport,,750,2021-11-22T14:12:06+00:00
5612,RJSM,medium_airport,"Misawa Airport / Misawa Air Base",40.703201,141.367996,119,AS,Japan,JP,"Aomori Prefecture",JP-02,02,Misawa,1,RJSM,RJSM,MSJ,,,https://en.wikipedia.org/wiki/Misawa_Air_Base,,750,2023-12-24T03:44:56+00:00
26858,WIPT,medium_airport,"Minangkabau International Airport",-0.786917,100.280998,18,AS,Indonesia,ID,"Sumatera Barat (West Sumatra)",ID-SB,SB,"Padang (Katapiang)",1,WIEE,,PDG,,http://minangkabau-airport.co.id/en/general/about-us,https://en.wikipedia.org/wiki/Minangkabau_International_Airport,,750,2021-11-21T15:51:59+00:00
26821,WIBB,medium_airport,"Sultan Syarif Kasim II International Airport / Roesmin Nurjadin AFB",0.458647,101.444321,102,AS,Indonesia,ID,Riau,ID-RI,RI,Pekanbaru,1,WIBB,WIBB,PKU,,,https://en.wikipedia.org/wiki/Sultan_Syarif_Qasim_II_International_Airport,"Simpang Tiga",750,2022-10-01T23:20:31+00:00
26620,VOPB,medium_airport,"Veer Savarkar International Airport / INS Utkrosh",11.641208,92.729643,13,AS,India,IN,"Andaman and Nicobar Islands",IN-AN,AN,"Port Blair",1,VOPB,VOPB,IXZ,,,https://en.wikipedia.org/wiki/Veer_Savarkar_International_Airport,"Port Blair Airport, Port Blair Air Force Station",750,2021-08-20T16:32:45+00:00
26756,WAVV,medium_airport,"Wamena Airport",-4.097324,138.952417,5435,AS,Indonesia,ID,"Papua Pegunungan (Highland Papua)",ID-PP,PP,Wamena,1,WAVV,WAVV,WMX,,,https://en.wikipedia.org/wiki/Wamena_Airport,WAJW,550,2022-09-30T11:49:31+00:00
26615,VOHY,medium_airport,"Begumpet Airport",17.4531,78.467598,1742,AS,India,IN,Telangana,IN-TG,TG,Hyderabad,0,VOHY,VOHY,BPM,,,https://en.wikipedia.org/wiki/Begumpet_Airport,"Begumpet Air Force Station, HYD, Hyderabad Airport",475,2022-09-09T12:24:09+00:00
26800,WATO,small_airport,"Komodo Airport",-8.480694,119.888306,66,AS,Indonesia,ID,"Nusa Tenggara Timur (East Nusa Tenggara)",ID-NT,NT,"Labuan Bajo, Manggarai Barat",1,WATO,WATO,LBJ,,,https://en.wikipedia.org/wiki/Komodo_Airport,"Komodo Labuan Bajo International Airport, Mutiara II Airport, WRKO",150,2025-03-04T07:43:29+00:00
26712,VYBG,small_airport,"Bagan Airport",21.178800582885742,94.9301986694336,312,AS,Myanmar,MM,"Mandalay Region",MM-04,04,"Nyaung U",1,VYBG,VYBG,NYU,,,https://en.wikipedia.org/wiki/Nyaung_U_Airport,,150,2008-11-03T17:32:52+00:00
27217,ZSFZ,large_airport,"Fuzhou Changle International Airport",25.934669,119.66318,46,AS,China,CN,"Fujian Province",CN-35,35,"Fuzhou (Changle)",1,ZSFZ,ZSFZ,FOC,FOC,,https://en.wikipedia.org/wiki/Fuzhou_Changle_International_Airport,,1200,2025-01-30T10:57:56+00:00
27193,ZBYN,large_airport,"Taiyuan Wusu International Airport",37.746899,112.627998,2575,AS,China,CN,"Shanxi Province",CN-14,14,Taiyuan,1,ZBYN,ZBYN,TYN,,,https://en.wikipedia.org/wiki/Taiyuan_Wusu_International_Airport,,1050,2025-02-27T16:57:04+00:00
27237,ZYCC,large_airport,"Changchun Longjia International Airport",43.996201,125.684998,706,AS,China,CN,"Jilin Province",CN-22,22,Changchun,1,ZYCC,ZYCC,CGQ,,,https://en.wikipedia.org/wiki/Changchun_Longjia_International_Airport,,1000,2022-06-13T09:18:20+00:00
5615,RJSS,large_airport,"Sendai Airport",38.139702,140.917007,15,AS,Japan,JP,"Miyagi Prefecture",JP-04,04,Natori,1,RJSS,RJSS,SDJ,,,https://en.wikipedia.org/wiki/Sendai_Airport,,1000,2020-12-10T11:07:52+00:00
26550,VICG,medium_airport,"Chandigarh International Airport",30.6735,76.788498,1012,AS,India,IN,Chandigarh,IN-CH,CH,Chandigarh,1,VICG,VICG,IXC,,,https://en.wikipedia.org/wiki/Chandigarh_Airport,"Chandigarh Air Force Station",750,2022-02-11T15:41:05+00:00
26501,VEGT,medium_airport,"Lokpriya Gopinath Bordoloi International Airport",26.10610008239746,91.58589935302734,162,AS,India,IN,Assam,IN-AS,AS,Guwahati,1,VEGT,VEGT,GAU,,http://aai.aero/guwahati/index.jsp,https://en.wikipedia.org/wiki/Lokpriya_Gopinath_Bordoloi_International_Airport,"Borjhar Airport, Mountain Shadow Air Force Station",750,2008-06-13T14:30:04+00:00
26562,VIJO,medium_airport,"Jodhpur Airport",26.251100540161133,73.04889678955078,717,AS,India,IN,Rajasthan,IN-RJ,RJ,Jodhpur,1,VIJO,VIJO,JDH,,,https://en.wikipedia.org/wiki/Jodhpur_Airport,"Jodhpur Air Force Station",750,2008-06-13T14:30:04+00:00
26569,VILH,medium_airport,"Leh Kushok Bakula Rimpochee Airport",34.135899,77.546501,10682,AS,India,IN,Ladakh,IN-LA,LA,Leh,1,VILH,VILH,IXL,,http://airportsindia.org.in/allAirports/leh_generalinfo.jsp,https://en.wikipedia.org/wiki/Leh_Kushok_Bakula_Rimpochee_Airport,"Leh Air Force Station",750,2022-09-19T14:07:48+00:00
26811,WBGR,medium_airport,"Miri Airport",4.32201,113.987,59,AS,Malaysia,MY,Sarawak,MY-13,13,Miri,1,WBGR,WBGR,MYY,,,https://en.wikipedia.org/wiki/Miri_Airport,,750,2022-11-08T10:57:50+00:00
5573,RJFU,medium_airport,"Nagasaki Airport",32.916901,129.914001,15,AS,Japan,JP,"Nagasaki Prefecture",JP-42,42,Nagasaki,1,RJFU,RJFU,NGS,,https://nagasaki-airport.jp/en/,https://en.wikipedia.org/wiki/Nagasaki_Airport,,750,2024-05-09T16:01:35+00:00
5655,RKSO,medium_airport,"Osan Air Base",37.091457,127.029448,38,AS,"South Korea",KR,"Gyeonggi-do (Gyeonggi Province)",KR-41,41,Pyeongtaek,0,RKSO,RKSO,OSN,,,https://en.wikipedia.org/wiki/Osan_Air_Base,,750,2024-10-17T11:09:03+00:00
5550,RJCO,medium_airport,"Sapporo Okadama Airport",43.117447,141.38134,25,AS,Japan,JP,"Hokkaidō Prefecture",JP-01,01,Sapporo,1,RJCO,RJCO,OKD,,,https://en.wikipedia.org/wiki/Okadama_Airport,"RJCO, OKD, Sapporo, Okadama",750,2020-10-13T17:12:15+00:00
26491,VEBD,medium_airport,"Bagdogra Airport",26.68120002746582,88.32859802246094,412,AS,India,IN,"West Bengal",IN-WB,WB,Siliguri,1,VEBD,VEBD,IXB,,http://aai.aero/allAirports/bagdogra_generalinfo.jsp,https://en.wikipedia.org/wiki/Bagdogra_Airport,"Bagdogra Air Force Station",750,2008-06-13T14:30:04+00:00
26387,UTNU,medium_airport,"Urgench Airport",41.58430099487305,60.641700744628906,320,AS,Uzbekistan,UZ,"Xorazm Region",UZ-XO,XO,Urgench,1,UTNU,UTNU,UGC,,,https://en.wikipedia.org/wiki/Urgench_Airport,,750,2008-09-05T16:05:33+00:00
30593,ZGSD,medium_airport,"Zhuhai Jinwan Airport",22.006399,113.375999,23,AS,China,CN,"Guangdong Province",CN-44,44,"Zhuhai (Jinwan)",1,ZGSD,ZGSD,ZUH,,,https://en.wikipedia.org/wiki/Zhuhai_Jinwan_Airport,,750,2021-05-14T18:20:01+00:00
5292,ORER,medium_airport,"Erbil International Airport",36.23759841918945,43.963199615478516,1341,AS,Iraq,IQ,"Arbil Governorate",IQ-AR,AR,Arbil,1,ORER,ORER,EBL,,,https://en.wikipedia.org/wiki/Erbil_International_Airport,"Irbil, Kurdistan, فروکه‌خانه‌ی نيوده‌وله‌تی هه‌ولير",650,2009-01-01T17:26:40+00:00
4513,LTAG,medium_airport,"İncirlik Air Base",37.002102,35.4259,238,AS,Turkey,TR,"Adana Province",TR-01,01,Sarıçam,0,LTAG,LTAG,UAB,,,https://en.wikipedia.org/wiki/Incirlik_Air_Base,,600,2021-01-10T09:31:31+00:00
5311,OYAA,medium_airport,"Aden International Airport",12.8295,45.028801,7,AS,Yemen,YE,"Aden Governorate",YE-AD,AD,Aden,1,OYAA,OYAA,ADE,,,https://en.wikipedia.org/wiki/Aden_International_Airport,"RAF Khormaksar",750,2021-10-07T10:44:53+00:00
26746,WABB,medium_airport,"Frans Kaisiepo Airport",-1.19002,136.108002,46,AS,Indonesia,ID,Papua,ID-PA,PA,Biak,1,WABB,WABB,BIK,,,https://en.wikipedia.org/wiki/Frans_Kaisiepo_Airport,,750,2022-10-01T23:19:12+00:00
4549,LTCC,medium_airport,"Diyarbakır Airport",37.893902,40.201,2251,AS,Turkey,TR,"Diyarbakır Province",TR-21,21,Diyarbakır,1,LTCC,LTCC,DIY,,,https://en.wikipedia.org/wiki/Diyarbak%C4%B1r_Airport,,750,2021-11-06T07:04:48+00:00
4551,LTCE,medium_airport,"Erzurum International Airport",39.956501,41.1702,5763,AS,Turkey,TR,"Erzurum Province",TR-25,25,Erzurum,1,LTCE,LTCE,ERZ,,,https://en.wikipedia.org/wiki/Erzurum_Airport,,750,2021-11-20T16:13:19+00:00
27222,ZSOF,medium_airport,"Hefei Xinqiao International Airport",31.98779,116.9769,207,AS,China,CN,"Anhui Province",CN-34,34,Hefei,1,ZSOF,ZSOF,HFE,,,https://en.wikipedia.org/wiki/Hefei_Xinqiao_International_Airport,,750,2021-10-01T10:34:49+00:00
32489,ZSTX,medium_airport,"Tunxi International Airport",29.733299255371094,118.25599670410156,,AS,China,CN,"Anhui Province",CN-34,34,Huangshan,1,ZSTX,ZSTX,TXN,,,https://en.wikipedia.org/wiki/Huangshan_Tunxi_International_Airport,,750,2008-08-01T09:31:33+00:00
6455,UHHH,medium_airport,"Khabarovsk Novy Airport",48.528338,135.188588,244,AS,Russia,RU,"Khabarovsk Krai",RU-KHA,KHA,Khabarovsk,1,UHHH,UHHH,KHV,,http://airkhv.ru/,https://en.wikipedia.org/wiki/Khabarovsk_Novy_Airport,"Аэропорт Хабаровск-Новый",750,2023-04-01T13:56:46+00:00
5688,RPLI,medium_airport,"Laoag International Airport",18.176121,120.531034,25,AS,Philippines,PH,"Ilocos Norte Province",PH-ILN,ILN,"Laoag City",1,RPLI,RPLI,LAO,,,https://en.wikipedia.org/wiki/Laoag_International_Airport,"Gabu Airfield, Laoag Airfield",750,2022-11-08T01:36:08+00:00
26818,WBMU,medium_airport,"Mulu Airport",4.048329830169678,114.80500030517578,80,AS,Malaysia,MY,Sarawak,MY-13,13,Mulu,1,WBMU,WBMU,MZV,,,https://en.wikipedia.org/wiki/Mulu_Airport,,750,2008-08-17T17:08:57+00:00
26598,VNPK,medium_airport,"Pokhara Airport",28.200621,83.981203,2712,AS,Nepal,NP,"Gandaki Province",NP-P4,P4,Pokhara,1,VNPK,VNPK,,,,https://en.wikipedia.org/wiki/Pokhara_Airport,PKR,750,2023-12-14T14:07:42+00:00
26816,WBKS,medium_airport,"Sandakan Airport",5.900899887084961,118.05899810791016,46,AS,Malaysia,MY,Sabah,MY-12,12,Sandakan,1,WBKS,WBKS,SDK,,,https://en.wikipedia.org/wiki/Sandakan_Airport,,750,2008-08-17T17:08:57+00:00
6461,UHSS,medium_airport,"Yuzhno-Sakhalinsk Airport",46.885461,142.717466,59,AS,Russia,RU,"Sakhalin Oblast",RU-SAK,SAK,Yuzhno-Sakhalinsk,1,UHSS,UHSS,UUS,,http://www.airportus.ru/,https://en.wikipedia.org/wiki/Yuzhno-Sakhalinsk_Airport,"Аэропорт Южно-Сахалинск, Khomutovo",750,2024-04-30T13:57:05+00:00
44487,LTFG,medium_airport,"Gazipaşa-Alanya Airport",36.299217,32.300598,92,AS,Turkey,TR,"Antalya Province",TR-07,07,Gazipaşa,1,LTFG,LTFG,GZP,,http://www.gzpairport.com/,https://en.wikipedia.org/wiki/Gazipa%C5%9Fa_Airport,,500,2021-11-01T07:50:04+00:00
5595,RJOI,medium_airport,"Iwakuni Kintaikyo Airport / Marine Corps Air Station Iwakuni",34.146333,132.247238,7,AS,Japan,JP,"Yamaguchi Prefecture",JP-35,35,Iwakuni,1,RJOI,RJOI,IWK,,http://www.iwakuni-airport.jp/,https://en.wikipedia.org/wiki/Marine_Corps_Air_Station_Iwakuni,"MCAS Iwakuni, Iwakuni Air Base",500,2022-09-26T01:01:59+00:00
3982,LCRA,medium_airport,"RAF Akrotiri",34.590401,32.9879,76,AS,Cyprus,CY,"Sovereign Base Areas of Akrotiri and Dhekelia",CY-XX,XX,Akrotiri,0,LCRA,LCRA,AKT,,http://www.raf.mod.uk/rafakrotiri/passengerinformation/,https://en.wikipedia.org/wiki/RAF_Akrotiri,"Royal Air Force, RAF, British",475,2022-03-22T10:19:37+00:00
2880,FJDG,medium_airport,"Diego Garcia Naval Support Facility",-7.31327,72.411102,9,AS,"British Indian Ocean Territory",IO,(unassigned),IO-U-A,U-A,"Diego Garcia",0,FJDG,,NKW,,,https://en.wikipedia.org/wiki/Diego_Garcia,Chagos,475,2020-09-02T11:30:14+00:00
5219,OKAS,medium_airport,"Ali Al Salem Air Base",29.344632,47.511215,472,AS,Kuwait,KW,"Al Jahra Governorate",KW-JA,JA,"Al Damaikhi",0,OKAS,,,,,https://en.wikipedia.org/wiki/Ali_Al_Salem_Air_Base,"The Rock",450,2022-01-17T11:30:33+00:00
26749,ID-0319,closed,"Selaparang Airport",-8.56056,116.095097,52,AS,Indonesia,ID,"Nusa Tenggara Barat (West Nusa Tenggara)",ID-NB,NB,Mataram,0,,,,,,https://en.wikipedia.org/wiki/Selaparang_Airport,"WRRA, Ampenan, WADA, AMI",150,2025-02-25T14:48:45+00:00
4527,LTAZ,small_airport,"Nevşehir Kapadokya Airport",38.7719,34.5345,3100,AS,Turkey,TR,"Nevşehir Province",TR-50,50,Nevşehir,1,LTAZ,LTAZ,NAV,,,https://en.wikipedia.org/wiki/Nev%C5%9Fehir_Kapadokya_Airport,,150,2022-09-20T14:14:44+00:00
27195,ZGHA,large_airport,"Changsha Huanghua International Airport",28.189199,113.220001,217,AS,China,CN,"Hunan Province",CN-43,43,"Changsha (Changsha)",1,ZGHA,ZGHA,CSX,,,https://en.wikipedia.org/wiki/Changsha_Huanghua_International_Airport,长沙黄花国际机场,1050,2022-10-17T10:15:42+00:00
27201,ZJHK,large_airport,"Haikou Meilan International Airport",19.9349,110.459,75,AS,China,CN,"Hainan Province",CN-46,46,"Haikou (Meilan)",1,ZJHK,ZJHK,HAK,,,https://en.wikipedia.org/wiki/Haikou_Meilan_International_Airport,ZGHK,1050,2020-12-16T14:36:57+00:00
333692,OPIS,large_airport,"Islamabad International Airport",33.549,72.82566,1761,AS,Pakistan,PK,Punjab,PK-PB,PB,Attock,1,OPIS,OPIS,ISB,,http://www.islamabadairport.com.pk/,https://en.wikipedia.org/wiki/Islamabad_International_Airport,,1000,2022-11-02T09:24:59+00:00
26784,WAPP,medium_airport,"Pattimura International Airport",-3.71026,128.089005,33,AS,Indonesia,ID,Maluku,ID-MA,MA,Ambon,1,WAPP,WAPP,AMQ,,,https://en.wikipedia.org/wiki/Pattimura_Airport,,750,2022-10-01T19:36:07+00:00
4516,LTAJ,medium_airport,"Gaziantep International Airport",36.947201,37.478699,2315,AS,Turkey,TR,"Gaziantep Province",TR-27,27,Gaziantep,1,LTAJ,LTAJ,GZT,,,https://en.wikipedia.org/wiki/O%C4%9Fuzeli_Airport,,750,2021-11-20T16:12:32+00:00
5545,RJCH,medium_airport,"Hakodate Airport",41.77,140.822006,151,AS,Japan,JP,"Hokkaidō Prefecture",JP-01,01,Hakodate,1,RJCH,RJCH,HKD,,,https://en.wikipedia.org/wiki/Hakodate_Airport,,750,2022-03-22T10:02:03+00:00
26446,VAID,medium_airport,"Devi Ahilyabai Holkar Airport",22.7217998505,75.8011016846,1850,AS,India,IN,"Madhya Pradesh",IN-MP,MP,Indore,1,VAID,VAID,IDR,,http://aai.aero/allAirports/indore_technicalinfo.jsp,https://en.wikipedia.org/wiki/Devi_Ahilyabai_Holkar_International_Airport,,750,2010-09-07T20:17:15+00:00
5547,RJCK,medium_airport,"Kushiro Airport",43.041,144.192993,327,AS,Japan,JP,"Hokkaidō Prefecture",JP-01,01,Kushiro,1,RJCK,RJCK,KUH,,https://www.kushiro-airport.co.jp/,https://en.wikipedia.org/wiki/Kushiro_Airport,,750,2024-05-09T16:03:53+00:00
26616,VOMD,medium_airport,"Madurai Airport",9.83450984955,78.09339904790001,459,AS,India,IN,"Tamil Nadu",IN-TN,TN,Madurai,1,VOMD,VOMD,IXM,,http://www.airportsindia.org.in/allAirports/madurai_airpo_gi.jsp,https://en.wikipedia.org/wiki/Madurai_Airport,"Madurai Air Force Station",750,2010-09-09T20:23:44+00:00
6458,UHMM,medium_airport,"Sokol Airport",59.9109992980957,150.72000122070312,574,AS,Russia,RU,"Magadan Oblast",RU-MAG,MAG,Magadan,1,UHMM,UHMM,GDX,,,https://en.wikipedia.org/wiki/Sokol_Airport,,750,2008-08-11T13:12:12+00:00
26517,VEPT,medium_airport,"Jay Prakash Narayan Airport",25.591299,85.087997,170,AS,India,IN,Bihar,IN-BR,BR,Patna,1,VEPT,VEPT,PAT,,http://airportsindia.org.in/allAirports/patna_techinfo.jsp,https://en.wikipedia.org/wiki/Jay_Prakash_Narayan_Airport,"Lok Nayah Jayprakash",750,2022-09-09T16:01:59+00:00
5270,OPPS,medium_airport,"Peshawar International Airport",33.993900299072266,71.51460266113281,1158,AS,Pakistan,PK,"Khyber Pakhtunkhwa",PK-KP,KP,Peshawar,1,OPPS,OPPS,PEW,,,https://en.wikipedia.org/wiki/Peshawar_International_Airport,,750,2008-09-01T20:48:22+00:00
26847,WIOO,medium_airport,"Supadio Airport",-0.150711,109.403999,10,AS,Indonesia,ID,"Kalimantan Barat (West Kalimantan)",ID-KB,KB,Pontianak,1,WIOO,WIOO,PNK,,,https://en.wikipedia.org/wiki/Supadio_Airport,,750,2022-10-01T23:20:58+00:00
5244,OOSA,medium_airport,"Salalah Airport",17.038700103759766,54.09130096435547,73,AS,Oman,OM,"Dhofar Governorate",OM-ZU,ZU,Salalah,1,OOSA,OOSA,SLL,,http://www.dgcam.gov.om/str/airsalah.htm,https://en.wikipedia.org/wiki/Salalah_Airport,"مطار صلالة",750,2009-02-05T15:13:29+00:00
5726,RPUS,medium_airport,"San Fernando Airport",16.5956,120.303001,13,AS,Philippines,PH,"La Union Province",PH-LUN,LUN,"San Fernando",0,RPUS,RPUS,SFE,,,https://en.wikipedia.org/wiki/San_Fernando_Airport,,750,2025-03-01T03:25:23+00:00
26578,VISR,medium_airport,"Sheikh ul Alam International Airport",33.987099,74.7742,5429,AS,India,IN,"Jammu and Kashmir",IN-JK,JK,Srinagar,1,VISR,VISR,SXR,,,https://en.wikipedia.org/wiki/Srinagar_Airport,"Srinagar Air Force Station",750,2022-02-11T17:19:10+00:00
26462,VAUD,medium_airport,"Maharana Pratap Airport",24.617700576799997,73.89610290530001,1684,AS,India,IN,Rajasthan,IN-RJ,RJ,Udaipur,1,VAUD,VAUD,UDR,,http://www.airportsindia.org.in/allAirports/udaipur_airpo_gi.jsp,https://en.wikipedia.org/wiki/Udaipur_Airport,"Dabok Airport",750,2010-09-08T18:14:20+00:00
32468,UNTT,medium_airport,"Bogashevo Airport",56.380298614502,85.208297729492,597,AS,Russia,RU,"Tomsk Oblast",RU-TOM,TOM,Tomsk,1,UNTT,UNTT,TOF,,http://www.tomskairport.ru,https://en.wikipedia.org/wiki/Bogashevo_Airport,,550,2015-07-26T09:08:41+00:00
31007,RPEN,small_airport,"El Nido Airport",11.202399,119.416087,,AS,Philippines,PH,"Palawan Province",PH-PLW,PLW,"El Nido",1,RPEN,RPEN,ENI,,,https://en.wikipedia.org/wiki/El_Nido_Airport,"El Nido",150,2018-05-02T10:27:18+00:00
26801,WATT,small_airport,"El Tari Airport",-10.1716,123.670998,335,AS,Indonesia,ID,"Nusa Tenggara Timur (East Nusa Tenggara)",ID-NT,NT,Kupang,1,WATT,WATT,KOE,,,https://en.wikipedia.org/wiki/El_Tari_Airport,WRKK,150,2022-10-01T23:20:51+00:00
5718,RPUG,small_airport,"Lingayen Airport",16.034966,120.242191,7,AS,Philippines,PH,"Pangasinan Province",PH-PAN,PAN,Lingayen,0,RPUG,,,,,https://en.wikipedia.org/wiki/Lingayen_Airport,,50,2024-05-18T21:31:19+00:00
513482,VDSA,large_airport,"Siem Reap-Angkor International Airport",13.369167,104.223056,191,AS,Cambodia,KH,"Siem Reap province",KH-17,17,"Siem Reap",1,VDSA,VDSA,SAI,,,https://en.wikipedia.org/wiki/Siem_Reap–Angkor_International_Airport,,1000,2025-02-14T17:47:02+00:00
335326,ZMCK,large_airport,"Ulaanbaatar Chinggis Khaan International Airport",47.646916,106.819833,4482,AS,Mongolia,MN,"Töv Province",MN-047,047,"Ulaanbaatar (Sergelen)",1,ZMCK,ZMCK,UBN,,https://ulaanbaatar-airport.mn/,https://en.wikipedia.org/wiki/New_Ulaanbaatar_International_Airport,"Khöshig Valley",1000,2022-12-10T08:40:05+00:00
5156,OIFM,medium_airport,"Isfahan Shahid Beheshti International Airport",32.750755,51.861483,5059,AS,Iran,IR,"Isfahan Province",IR-10,10,Isfahan,1,OIFM,OIFM,IFN,,,https://en.wikipedia.org/wiki/Isfahan_International_Airport,Esfahan,750,2022-11-20T12:54:45+00:00
5090,OEGN,medium_airport,"Jizan Regional Airport / King Abdullah bin Abdulaziz Airport",16.9011,42.5858,20,AS,"Saudi Arabia",SA,"Jlzan Region",SA-09,09,Jizan,1,OEGN,OEGN,GIZ,,,https://en.wikipedia.org/wiki/Jizan_Regional_Airport,Gizan,750,2021-01-26T14:26:39+00:00
5538,RJBE,medium_airport,"Kobe Airport",34.6328010559082,135.2239990234375,22,AS,Japan,JP,"Hyōgo Prefecture",JP-28,28,Kobe,1,RJBE,RJBE,UKB,,,https://en.wikipedia.org/wiki/Kobe_Airport,,750,2008-08-08T11:19:12+00:00
4518,LTAN,medium_airport,"Konya Airport",37.979,32.561901,3392,AS,Turkey,TR,"Konya Province",TR-42,42,Konya,1,LTAN,LTAN,KYA,,http://www.konya.dhmi.gov.tr/havaalanlari/default.aspx?hv=28,https://en.wikipedia.org/wiki/Konya_Airport,,750,2016-06-01T13:55:34+00:00
5690,PH-0681,closed,"Legazpi City International Airport",13.1575,123.735,66,AS,Philippines,PH,"Albay Province",PH-ALB,ALB,"Legazpi City",1,,,,,,https://en.wikipedia.org/wiki/Legazpi_Airport,"LGP, RPLP",750,2025-02-25T14:38:06+00:00
26453,VANP,medium_airport,"Dr. Babasaheb Ambedkar International Airport",21.092199,79.047203,1033,AS,India,IN,Maharashtra,IN-MM,MM,Nagpur,1,VANP,VANP,NAG,,http://aai.aero/allAirports/nagpur1_generalinfo.jsp,https://en.wikipedia.org/wiki/Dr._Babasaheb_Ambedkar_International_Airport,"Sonegaon Airport, Sonegaon Air Force Station",750,2020-07-21T11:55:08+00:00
26812,WBGS,medium_airport,"Sibu Airport",2.2616,111.985001,122,AS,Malaysia,MY,Sarawak,MY-13,13,Sibu,1,WBGS,WBGS,SBW,,,https://en.wikipedia.org/wiki/Sibu_Airport,,750,2022-08-26T09:49:15+00:00
5204,OITT,medium_airport,"Tabriz International Airport",38.1339,46.235001,4459,AS,Iran,IR,"East Azerbaijan Province",IR-03,03,Tabriz,1,OITT,OITT,TBZ,,http://www.tabrizairport.ir/,https://en.wikipedia.org/wiki/Tabriz_International_Airport,IRIAF,750,2021-11-21T15:50:17+00:00
30923,VVDL,medium_airport,"Lien Khuong Airport",11.750556,108.366997,3156,AS,Vietnam,VN,"Central Highlands Region",VN-CH,CH,"Da Lat",1,VVDL,VVDL,DLI,,,https://en.wikipedia.org/wiki/Lien_Khuong_Airport,Lienkhang,500,2025-02-10T09:15:30+00:00
26461,VASU,medium_airport,"Surat Airport",21.1141,72.741798,16,AS,India,IN,Gujarat,IN-GJ,GJ,Surat,1,VASU,VASU,STV,,https://suratinternationalairport.com/,https://en.wikipedia.org/wiki/Surat_Airport,,500,2024-02-07T18:57:19+00:00
32672,ZSWZ,large_airport,"Wenzhou Longwan International Airport",27.910572,120.853465,13,AS,China,CN,"Zhejiang Province",CN-33,33,"Wenzhou (Longwan)",1,ZSWZ,ZSWZ,WNZ,,,https://en.wikipedia.org/wiki/Wenzhou_Longwan_International_Airport,"温州永强机场, Wenzhou Yongqiang Airport",1000,2025-03-04T06:07:15+00:00
5213,OJAM,medium_airport,"Amman Civil (Marka International) Airport",31.9727,35.9916,2555,AS,Jordan,JO,"Amman Governorate",JO-AM,AM,Amman,1,OJAM,OJAM,ADJ,,,https://en.wikipedia.org/wiki/Amman_Civil_Airport,"King Abdullah Air Base",750,2021-10-07T11:02:22+00:00
6456,UHMA,medium_airport,"Ugolny Yuri Ryktheu Airport",64.734902,177.740997,194,AS,Russia,RU,"Chukotka Autonomous Okrug",RU-CHU,CHU,Anadyr,1,UHMA,UHMA,DYR,,,https://en.wikipedia.org/wiki/Ugolny_Airport,"Аnadyr Airport, Аэропорт Анадырь",750,2023-06-08T15:57:30+00:00
5715,RPUB,medium_airport,"Loakan Airport",16.375034,120.619949,4251,AS,Philippines,PH,"Baguio City",PH-BAG,BAG,Baguio,1,RPUB,RPUB,BAG,,,https://en.wikipedia.org/wiki/Loakan_Airport,"Baguio Airport",750,2025-03-04T05:16:03+00:00
5698,RPME,medium_airport,"Bancasi Airport",8.9515,125.4788,141,AS,Philippines,PH,"Butuan City",PH-BTC,BTC,Butuan,1,RPME,RPME,BXU,,,https://en.wikipedia.org/wiki/Bancasi_Airport,,750,2024-12-13T16:35:05+00:00
26527,VGEG,medium_airport,"Shah Amanat International Airport",22.249599,91.813301,12,AS,Bangladesh,BD,"Chittagong Division",BD-2,2,"Chattogram (Chittagong)",1,VGEG,VGEG,CGP,,,https://en.wikipedia.org/wiki/Shah_Amanat_International_Airport,"M.A. Hannan International Airport",750,2021-01-21T17:16:24+00:00
5661,RKTN,medium_airport,"Daegu Airport",35.896872,128.65531,116,AS,"South Korea",KR,"Daegu-gwangyeoksi (Daegu Metropolitan City)",KR-27,27,Daegu,1,RKTN,RKTN,TAE,,,https://en.wikipedia.org/wiki/Daegu_Airport,,750,2017-04-10T02:49:16+00:00
27122,YPXM,medium_airport,"Christmas Island Airport",-10.449382,105.690931,916,AS,"Christmas Island",CX,(unassigned),CX-U-A,U-A,"Flying Fish Cove",1,YPXM,YPXM,XCH,,http://www.christmasislandairport.com/,https://en.wikipedia.org/wiki/Christmas_Island_Airport,,750,2022-06-26T04:22:30+00:00
5237,OMFJ,medium_airport,"Fujairah International Airport",25.1122,56.324001,152,AS,"United Arab Emirates",AE,"Fujairah Emirate",AE-FU,FU,Fujairah,1,OMFJ,OMFJ,FJR,,,https://en.wikipedia.org/wiki/Fujairah_International_Airport,,750,2023-12-23T06:31:15+00:00
26869,WMKD,medium_airport,"Kuantan Airport",3.7753899097442627,103.20899963378906,58,AS,Malaysia,MY,Pahang,MY-06,06,Kuantan,1,WMKD,WMKD,KUA,,,https://en.wikipedia.org/wiki/Sultan_Haji_Ahmad_Shah_Airport,,750,2008-08-17T17:08:57+00:00
5543,RJCB,medium_airport,"Tokachi-Obihiro Airport",42.7332992554,143.216995239,505,AS,Japan,JP,"Hokkaidō Prefecture",JP-01,01,Obihiro,1,RJCB,RJCB,OBO,,,https://en.wikipedia.org/wiki/Obihiro_Airport,,750,2010-08-29T21:30:29+00:00
5569,RJFO,medium_airport,"Oita Airport",33.479400634799994,131.736999512,19,AS,Japan,JP,"Ōita Prefecture",JP-44,44,Oita,1,RJFO,RJFO,OIT,,,https://en.wikipedia.org/wiki/Oita_Airport,,750,2010-08-29T23:11:21+00:00
6460,UHPP,medium_airport,"Yelizovo Airport",53.16764,158.451863,131,AS,Russia,RU,"Kamchatka Krai",RU-KAM,KAM,Petropavlovsk-Kamchatsky,1,UHPP,UHPP,PKC,,,https://en.wikipedia.org/wiki/Petropavlovsk-Kamchatsky_Airport,,750,2023-05-23T12:29:38+00:00
5238,OMRK,medium_airport,"Ras Al Khaimah International Airport",25.613500595092773,55.93880081176758,102,AS,"United Arab Emirates",AE,"Ras al-Khaimah Emirate",AE-RK,RK,"Ras Al Khaimah",1,OMRK,OMRK,RKT,,,https://en.wikipedia.org/wiki/Ras_Al_Khaimah_International_Airport,,750,2008-12-19T20:10:58+00:00
26390,UTSS,medium_airport,"Samarkand Airport",39.70050048828125,66.98380279541016,2224,AS,Uzbekistan,UZ,"Samarqand Region",UZ-SA,SA,Samarkand,1,UTSS,UTSS,SKD,,,https://en.wikipedia.org/wiki/Samarkand_Airport,,750,2008-09-05T16:05:40+00:00
4568,LTFH,medium_airport,"Samsun-Çarşamba Airport",41.253988,36.567546,18,AS,Turkey,TR,"Samsun Province",TR-55,55,Samsun,1,LTFH,LTFH,SZF,,http://www.carsamba.dhmi.gov.tr/havaalanlari/default.aspx?hv=32,https://en.wikipedia.org/wiki/%C3%87ar%C5%9Famba_Airport,,750,2025-01-08T01:11:43+00:00
5121,OETB,medium_airport,"Tabuk Airport",28.3654,36.6189,2551,AS,"Saudi Arabia",SA,"Tabuk Region",SA-07,07,Tabuk,1,OETB,OETB,TUU,,,https://en.wikipedia.org/wiki/Tabuk_Regional_Airport,,750,2016-02-13T23:27:11+00:00
5122,OETF,medium_airport,"Ta’if Regional Airport",21.483001,40.543442,4848,AS,"Saudi Arabia",SA,"Makkah Region",SA-02,02,Ta’if,1,OETF,OETF,TIF,,,https://en.wikipedia.org/wiki/Ta%E2%80%99if_Regional_Airport,"Taif Airport",750,2016-02-13T23:43:31+00:00
26748,WABP,medium_airport,"Mozes Kilangin Airport",-4.52978,136.887388,103,AS,Indonesia,ID,"Papua Tengah (Central Papua)",ID-PT,PT,Timika,1,WAYY,,TIM,,,https://en.wikipedia.org/wiki/Mozes_Kilangin_Airport,"WABP, Tembagapura",750,2025-03-13T19:57:21+00:00
4555,LTCI,medium_airport,"Van Ferit Melen Airport",38.46820068359375,43.332298278808594,5480,AS,Turkey,TR,"Van Province",TR-65,65,Van,1,LTCI,LTCI,VAN,,,https://en.wikipedia.org/wiki/Ferit_Melen_Airport,,750,2008-06-13T14:30:04+00:00
5735,RPVD,medium_airport,"Sibulan Airport",9.334183,123.30191,15,AS,Philippines,PH,"Negros Oriental Province",PH-NER,NER,"Dumaguete City",1,RPVD,RPVD,DGT,,https://dumaguete.com/dumaguete-airport-sibulan/,https://en.wikipedia.org/wiki/Sibulan_Airport,,500,2022-08-27T12:52:13+00:00
26779,WAOO,medium_airport,"Syamsudin Noor International Airport",-3.44236,114.763,66,AS,Indonesia,ID,"Kalimantan Selatan (South Kalimantan)",ID-KS,KS,"Landasan Ulin",1,WAOO,WAOO,BDJ,,https://syamsudinnoor-airport.co.id/id,https://en.wikipedia.org/wiki/Syamsudin_Noor_Airport,"WRBB, Banjarmasin, Banjarbaru",500,2024-10-13T13:53:15+00:00
26785,WARA,medium_airport,"Abdul Rachman Saleh Airport",-7.929099,112.714233,1726,AS,Indonesia,ID,"Jawa Timur (East Java)",ID-JI,JI,Malang,1,WARA,WARA,MLG,,,https://en.wikipedia.org/wiki/Abdul_Rachman_Saleh_Airport,"WIAS, Malang, Singosari",500,2022-12-28T01:46:11+00:00
32634,WASS,medium_airport,"Domine Eduard Osok Airport",-0.894,131.287,10,AS,Indonesia,ID,"Papua Barat (West Papua)",ID-PB,PB,Sorong,1,WASS,WASS,SOQ,,,https://en.wikipedia.org/wiki/Domine_Eduard_Osok_Airport,WAXX,500,2025-02-26T12:34:11+00:00
30707,VNBP,small_airport,"Bharatpur Airport",27.678101,84.429398,600,AS,Nepal,NP,"Bagmati Province",NP-P3,P3,Bharatpur,1,VNBP,VNBP,BHR,,,https://en.wikipedia.org/wiki/Bharatpur_Airport,,150,2022-10-03T21:52:17+00:00
4521,LTAR,small_airport,"Sivas Nuri Demirağ Airport",39.813801,36.9035,5239,AS,Turkey,TR,"Sivas Province",TR-58,58,Sivas,1,LTAR,LTAR,VAS,,http://www.sivas.dhmi.gov.tr/havaalanlari/default.aspx?hv=35,https://en.wikipedia.org/wiki/Sivas_Airport,,150,2016-06-01T14:06:26+00:00
35387,OAZI,small_airport,"Camp Shorabak Airfield",31.848735,64.223175,2943,AS,Afghanistan,AF,"Helmand Province",AF-HEL,HEL,"Lashkar Gah",0,OAZI,OAZI,OAZ,,,https://en.wikipedia.org/wiki/Camp_Shorabak,"Camp Bastion, Camp Leatherneck",50,2021-02-20T16:23:56+00:00
32230,RPUX,small_airport,"Plaridel Airport",14.890855,120.852914,20,AS,Philippines,PH,"Bulacan Province",PH-BUL,BUL,Plaridel,0,RPUX,,,,,https://en.wikipedia.org/wiki/Plaridel_Airport,Plaridel,50,2020-10-21T13:48:09+00:00
5724,RPUQ,small_airport,"Vigan Airport",17.555299758911133,120.35600280761719,16,AS,Philippines,PH,"Ilocos Sur Province",PH-ILS,ILS,"Vigan City",0,RPUQ,,,,,https://en.wikipedia.org/wiki/Mindoro_Airport,,50,2008-06-13T14:30:04+00:00
342096,ZSQD,large_airport,"Qingdao Jiaodong International Airport",36.361953,120.088171,30,AS,China,CN,"Shandong Province",CN-37,37,"Qingdao (Jiaozhou)",1,ZSQD,ZSQD,TAO,,,https://en.wikipedia.org/wiki/Qingdao_Jiaodong_International_Airport,,1000,2024-10-17T13:48:35+00:00
4426,IL-0022,closed,"Sde Dov Airport",32.1147,34.7822,43,AS,Israel,IL,"Tel Aviv District",IL-TA,TA,"Tel Aviv",0,,,,,,https://en.wikipedia.org/wiki/Sde_Dov_Airport,"LLSD, LLSD, SDV",800,2025-02-25T14:38:03+00:00
26866,WMKA,medium_airport,"Sultan Abdul Halim Airport",6.189670085906982,100.39800262451172,15,AS,Malaysia,MY,Kedah,MY-02,02,"Alor Satar",1,WMKA,WMKA,AOR,,,https://en.wikipedia.org/wiki/Sultan_Abdul_Halim_Airport,,750,2008-08-17T17:08:57+00:00
35178,RPVB,medium_airport,"Bacolod-Silay Airport",10.7764,123.014999,82,AS,Philippines,PH,"Negros Occidental Province",PH-NEC,NEC,"Bacolod City",1,RPVB,RPVB,BCD,,http://www.bacolod-silayairport.com/,https://en.wikipedia.org/wiki/Bacolod%E2%80%93Silay_Airport,,750,2018-05-11T02:45:37+00:00
26439,VABP,medium_airport,"Raja Bhoj International Airport",23.2875003815,77.3374023438,1711,AS,India,IN,"Madhya Pradesh",IN-MP,MP,Bhopal,1,VABP,VABP,BHO,,http://aai.aero/allAirports/bhopal_generalinfo.jsp,https://en.wikipedia.org/wiki/Bhopal_Airport,,750,2013-04-12T01:50:07+00:00
26436,VABJ,medium_airport,"Bhuj Airport",23.2877998352,69.6701965332,268,AS,India,IN,Gujarat,IN-GJ,GJ,Bhuj,1,VABJ,VABJ,BHJ,,http://aai.aero/allAirports/bhuj_generalinfo.jsp,https://en.wikipedia.org/wiki/Bhuj_Airport,"Bhuj Rudra Mata Air Force Station, Shyamji Krishna Verma, Bhuj Airport",750,2010-09-07T19:02:16+00:00
5091,OEGS,medium_airport,"Gassim Airport",26.302799,43.774399,2126,AS,"Saudi Arabia",SA,"Al Qasim Region",SA-05,05,Buraidah,1,OEGS,OEGS,ELQ,,,https://en.wikipedia.org/wiki/Gassim_Regional_Airport,,750,2023-04-11T00:40:45+00:00
5749,RPVV,medium_airport,"Francisco B. Reyes (Busuanga) Airport",12.121865,120.100801,148,AS,Philippines,PH,"Palawan Province",PH-PLW,PLW,Coron,1,RPVV,RPVV,USU,,,https://en.wikipedia.org/wiki/Busuanga_Airport,"Busuanga Airport",750,2022-11-14T11:00:50+00:00
26606,VOBZ,medium_airport,"Vijayawada Airport",16.530399,80.796799,82,AS,India,IN,"Andhra Pradesh",IN-AP,AP,Gannavaram,1,VOBZ,VOBZ,VGA,,https://www.aai.aero/en/airports/vijayawada,https://en.wikipedia.org/wiki/Vijayawada_Airport,,750,2020-04-26T22:54:03+00:00
5630,RKJJ,medium_airport,"Gwangju Airport",35.123173,126.805444,39,AS,"South Korea",KR,"Gwangju-gwangyeoksi (Gwangju Metropolitan City)",KR-29,29,Gwangju,1,RKJJ,RKJJ,KWJ,,http://gwangju.airport.co.kr/doc/gwangju/index.jsp,https://en.wikipedia.org/wiki/Gwangju_Airport,,750,2017-04-12T01:54:34+00:00
4417,LLHA,medium_airport,"Haifa International Airport",32.80939865112305,35.04309844970703,28,AS,Israel,IL,"Haifa District",IL-HA,HA,Haifa,1,LLHA,LLHA,HFA,,http://www.iaa.gov.il/Rashat/en-US/Airports/Haifa/,https://en.wikipedia.org/wiki/Haifa_Airport,"U Michaeli Airport, RAF Haifa",750,2008-06-13T14:30:04+00:00
5530,RCYU,medium_airport,"Hualien Airport",24.023099899291992,121.61799621582031,52,AS,Taiwan,TW,"Hualien County",TW-HUA,HUA,"Hualien City",1,RCYU,RCYU,HUN,,http://www.hulairport.gov.tw/,https://en.wikipedia.org/wiki/Hualien_Airport,花蓮機場,750,2009-07-11T10:25:19+00:00
5585,RJNK,medium_airport,"Komatsu Airport / JASDF Komatsu Air Base",36.3946,136.406998,36,AS,Japan,JP,"Ishikawa Prefecture",JP-17,17,Kanazawa,1,RJNK,RJNK,KMQ,,,https://en.wikipedia.org/wiki/Komatsu_Airport,,750,2021-01-01T03:25:15+00:00
5572,RJFT,medium_airport,"Kumamoto Airport",32.83729934692383,130.85499572753906,642,AS,Japan,JP,"Kumamoto Prefecture",JP-43,43,Kumamoto,1,RJFT,RJFT,KMJ,,,https://en.wikipedia.org/wiki/Kumamoto_Airport,,750,2008-08-08T10:10:02+00:00
26648,VTCH,medium_airport,"Mae Hong Son Airport",19.3013,97.9758,929,AS,Thailand,TH,"Mae Hong Son Province",TH-58,58,"Mae Hong Son",1,VTCH,VTCH,HGN,,,https://en.wikipedia.org/wiki/Mae_Hong_Son_Airport,,750,2023-12-24T03:30:39+00:00
26794,WASR,medium_airport,"Rendani Airport",-0.891833,134.048996,23,AS,Indonesia,ID,"Papua Barat (West Papua)",ID-PB,PB,Manokwari,1,WAUU,,MKW,,,https://en.wikipedia.org/wiki/Rendani_Airport,,750,2022-10-01T23:22:01+00:00
5597,RJOM,medium_airport,"Matsuyama Airport",33.82720184326172,132.6999969482422,25,AS,Japan,JP,"Ehime Prefecture",JP-38,38,Matsuyama,1,RJOM,RJOM,MYJ,,,https://en.wikipedia.org/wiki/Matsuyama_Airport,,750,2008-08-08T10:13:17+00:00
5567,RJFM,medium_airport,"Miyazaki Airport",31.877199173,131.449005127,20,AS,Japan,JP,"Miyazaki Prefecture",JP-45,45,Miyazaki,1,RJFM,RJFM,KMI,,,https://en.wikipedia.org/wiki/Miyazaki_Airport,,750,2010-08-29T21:31:28+00:00
5264,OPMT,medium_airport,"Multan International Airport",30.20319938659668,71.41909790039062,403,AS,Pakistan,PK,Punjab,PK-PB,PB,Multan,1,OPMT,OPMT,MUX,,,https://en.wikipedia.org/wiki/Multan_International_Airport,"Multan Air Base",750,2009-02-20T09:54:48+00:00
5613,RJSN,medium_airport,"Niigata Airport",37.9558982849,139.121002197,29,AS,Japan,JP,"Niigata Prefecture",JP-15,15,Niigata,1,RJSN,RJSN,KIJ,,,https://en.wikipedia.org/wiki/Niigata_Airport,,750,2010-08-29T23:11:49+00:00
5548,RJCM,medium_airport,"Memanbetsu Airport",43.8805999756,144.164001465,135,AS,Japan,JP,"Hokkaidō Prefecture",JP-01,01,Ōzora,1,RJCM,RJCM,MMB,,,https://en.wikipedia.org/wiki/Memanbetsu_Airport,,750,2010-08-29T23:12:25+00:00
5272,OPQT,medium_airport,"Quetta International Airport",30.251399993896484,66.93779754638672,5267,AS,Pakistan,PK,Balochistan,PK-BA,BA,Quetta,1,OPQT,OPQT,UET,,,https://en.wikipedia.org/wiki/Quetta_International_Airport,,750,2009-02-20T09:43:22+00:00
5643,RKPS,medium_airport,"Sacheon Airport / Sacheon Air Base",35.088591,128.071747,25,AS,"South Korea",KR,"Gyeongsangnam-do (South Gyeongsang Province)",KR-48,48,Sacheon,1,RKPS,RKPS,HIN,,,https://en.wikipedia.org/wiki/Sacheon_Airport,,750,2022-07-26T10:49:23+00:00
5710,RPMS,medium_airport,"Surigao Airport",9.755838325629998,125.480947495,20,AS,Philippines,PH,"Surigao del Norte Province",PH-SUN,SUN,"Surigao City",1,RPMS,RPMS,SUG,,,https://en.wikipedia.org/wiki/Surigao_Airport,,750,2010-09-11T09:28:42+00:00
26817,WBKW,medium_airport,"Tawau Airport",4.31338,118.12152,57,AS,Malaysia,MY,Sabah,MY-12,12,Tawau,1,WBKW,WBKW,TWU,,,https://en.wikipedia.org/wiki/Tawau_Airport,,750,2023-12-24T07:09:52+00:00
26884,WSAP,medium_airport,"Paya Lebar Air Base",1.36042,103.910004,65,AS,Singapore,SG,"South East",SG-04,04,"Paya Lebar",0,WSAP,WSAP,QPG,,,https://en.wikipedia.org/wiki/Paya_Lebar_Airbase,,575,2022-01-27T00:19:41+00:00
26833,WAHL,medium_airport,"Tunggul Wulung Airport",-7.64506,109.033997,69,AS,Indonesia,ID,"Jawa Tengah (Central Java)",ID-JT,JT,Cilacap,1,WAHL,WAHL,CXP,,,https://en.wikipedia.org/wiki/Tunggul_Wulung_Airport,"WIIL, WIHL",550,2025-03-19T17:19:16+00:00
26827,WILL,medium_airport,"Radin Inten II International Airport",-5.246803,105.182531,282,AS,Indonesia,ID,Lampung,ID-LA,LA,"Bandar Lampung",1,WILL,WILL,TKG,,,https://en.wikipedia.org/wiki/Radin_Inten_II_International_Airport,"WIIT, WICT",500,2025-03-13T16:19:55+00:00
327608,ROIG,medium_airport,"New Ishigaki Airport",24.396389,124.245,102,AS,Japan,JP,"Okinawa Prefecture",JP-47,47,Ishigaki,1,ROIG,ROIG,ISG,,https://www.ishigaki-airport.co.jp/en/,https://en.wikipedia.org/wiki/New_Ishigaki_Airport,,500,2025-03-04T07:16:10+00:00
31705,ZSQZ,medium_airport,"Quanzhou Jinjiang International Airport",24.796587,118.588883,39,AS,China,CN,"Fujian Province",CN-35,35,Quanzhou,1,ZSQZ,ZSQZ,JJN,,,https://en.wikipedia.org/wiki/Quanzhou_Jinjiang_International_Airport,"Jinjiang Air Base, Chin Chiang, Qingyang",500,2025-01-30T10:54:41+00:00
5236,OMDM,medium_airport,"Al Minhad Air Base",25.0268001556,55.3661994934,165,AS,"United Arab Emirates",AE,"Dubai Emirate",AE-DU,DU,Dubai,0,OMDM,OMDM,NHD,,,https://en.wikipedia.org/wiki/Al_Minhad_Air_Base,,250,2012-01-01T14:01:33+00:00
5071,OAJL,medium_airport,"Jalalabad Airport",34.399799,70.498596,1814,AS,Afghanistan,AF,"Nangarhar Province",AF-NAN,NAN,Jalalabad,0,OAJL,OAJL,JAA,,,https://en.wikipedia.org/wiki/Jalalabad_Airport,,250,2021-11-02T12:52:06+00:00
26701,VN-0070,closed,"Nha Trang Air Base",12.2275,109.192001,20,AS,Vietnam,VN,"South Central Coast Region",VN-SCC,SCC,"Nha Trang",0,,,,,,https://en.wikipedia.org/wiki/Nha_Trang_Air_Base,"Nhatrang, BA 194, VVNT, NHA",250,2025-02-25T14:48:45+00:00
4423,LLOV,small_airport,"Ovda Airport",29.9403,34.935799,1492,AS,Israel,IL,"Southern District",IL-D,D,Eilat,0,LLOV,LLOV,VDA,,,https://en.wikipedia.org/wiki/Ovda_Airport,"Ovda Air Force Base",150,2020-09-24T13:36:44+00:00
26842,WIOD,small_airport,"H A S Hanandjoeddin International Airport",-2.74572,107.754997,164,AS,Indonesia,ID,"Bangka Belitung",ID-BB,BB,"Tanjung Pandan",1,WIKT,,TJQ,,,https://en.wikipedia.org/wiki/H.A.S._Hanandjoeddin_International_Airport,"Buluh Tumbang Airport,WIKD, WIOD",150,2021-10-12T10:17:12+00:00
26627,VOTP,small_airport,"Tirupati Airport",13.632499694800002,79.543296814,350,AS,India,IN,"Andhra Pradesh",IN-AP,AP,Tirupati,1,VOTP,VOTP,TIR,,http://aai.aero/allAirports/tirupati_generalinfo.jsp,https://en.wikipedia.org/wiki/Tirupati_Airport,,150,2010-09-09T20:26:05+00:00
30171,VAJJ,small_airport,"Juhu Aerodrome",19.098100662231445,72.83419799804688,13,AS,India,IN,Maharashtra,IN-MM,MM,Mumbai,0,VAJJ,,,,http://www.airportsindia.org.in/allAirports/juhu.jsp,https://en.wikipedia.org/wiki/Juhu_Aerodrome,Bombay,50,2008-06-15T10:01:25+00:00
32449,OATN,small_airport,"Tarinkot Airport",32.604198,65.865799,4429,AS,Afghanistan,AF,"Orūzgān Province",AF-URU,URU,Tarinkot,0,OATN,OATN,TII,,,https://en.wikipedia.org/wiki/Tarinkot_Airport,"Tarin Kowt",50,2021-02-20T16:19:59+00:00
5089,OEDR,large_airport,"King Abdulaziz Air Base",26.2654,50.152,84,AS,"Saudi Arabia",SA,"Ash Sharqiyah Region",SA-04,04,Dhahran,0,OEDR,OEDR,DHA,,,https://en.wikipedia.org/wiki/King_Abdulaziz_Air_Base,"Dhahran international Airport, Dhahran Air Base, Dhahran Airport, Dhahran Airfield",1075,2021-01-26T14:50:58+00:00
27189,ZBHH,large_airport,"Hohhot Baita International Airport",40.849658,111.824598,3556,AS,China,CN,"Inner Mongolia Autonomous Region",CN-15,15,Hohhot,1,ZBHH,ZBHH,HET,,http://www.hhhtbtjc.com/,https://en.wikipedia.org/wiki/Hohhot_Baita_International_Airport,,1000,2022-08-01T12:30:36+00:00
27216,ZSCN,large_airport,"Nanchang Changbei International Airport",28.864815,115.90271,143,AS,China,CN,"Jiangxi Province",CN-36,36,Nanchang,1,ZSCN,ZSCN,KHN,,,https://en.wikipedia.org/wiki/Nanchang_Changbei_International_Airport,,1000,2022-06-12T01:02:12+00:00
5082,OEAB,medium_airport,"Abha International Airport",18.2404,42.656601,6858,AS,"Saudi Arabia",SA,"Asir Region",SA-14,14,Abha,1,OEAB,OEAB,AHB,,,https://en.wikipedia.org/wiki/Abha_International_Airport,"Abha Regional Airport",750,2021-01-26T15:11:57+00:00
5302,OSAP,medium_airport,"Aleppo International Airport",36.180698,37.2244,1276,AS,Syria,SY,"Aleppo Governorate",SY-HL,HL,Aleppo,1,OSAP,OSAP,ALP,,http://www.aleppo-airport.com/en/,https://en.wikipedia.org/wiki/Aleppo_International_Airport,"مطار حلب الدولي",750,2021-11-21T15:58:05+00:00
5114,OERR,medium_airport,"Arar Domestic Airport",30.906600952148438,41.13819885253906,1813,AS,"Saudi Arabia",SA,"The Northern Border Region",SA-08,08,Arar,1,OERR,OERR,RAE,,,https://en.wikipedia.org/wiki/Arar_Domestic_Airport,,750,2008-06-13T14:30:04+00:00
26433,VAAU,medium_airport,"Aurangabad Airport",19.862699508666992,75.39810180664062,1911,AS,India,IN,Maharashtra,IN-MM,MM,Aurangabad,1,VAAU,VAAU,IXU,,http://aai.aero/allAirports/aurangabad_generalinfo.jsp,https://en.wikipedia.org/wiki/Aurangabad_Airport,"Chikkalthana Airport",750,2008-06-13T14:30:04+00:00
5294,ORMM,medium_airport,"Basra International Airport",30.549101,47.662102,11,AS,Iraq,IQ,"Basra Governorate",IQ-BA,BA,Basra,1,ORMM,ORMM,BSR,,http://www.basrainternationalairport.com,https://en.wikipedia.org/wiki/Basra_International_Airport,Basrah,750,2021-11-21T16:03:19+00:00
26694,VVCS,medium_airport,"Con Dao Airport",8.73183,106.633003,20,AS,Vietnam,VN,"Southeast Region",VN-SE,SE,"Con Dao",1,VVCS,VVCS,VCS,,,https://en.wikipedia.org/wiki/Con_Dao_Airport,"Conson Airport",750,2021-01-10T21:40:37+00:00
26526,VGCB,medium_airport,"Cox's Bazar Airport",21.452199935913086,91.96389770507812,12,AS,Bangladesh,BD,"Chittagong Division",BD-2,2,"Cox's Bazar",1,VGCB,VGCB,CXB,,,https://en.wikipedia.org/wiki/Cox's_Bazar_Airport,,750,2009-06-26T07:41:09+00:00
27209,ZMDZ,medium_airport,"Dalanzadgad Airport",43.608628,104.367734,4787,AS,Mongolia,MN,"Ömnögovi Province",MN-053,053,Dalanzadgad,1,ZMDZ,ZMDZ,DLZ,,,https://en.wikipedia.org/wiki/Dalanzadgad_Airport,,750,2024-04-10T09:22:18+00:00
4526,LTAY,medium_airport,"Çardak Airport",37.7855987549,29.7012996674,2795,AS,Turkey,TR,"Denizli Province",TR-20,20,Denizli,1,LTAY,LTAY,DNZ,,,https://en.wikipedia.org/wiki/%C3%87ardak_Airport,,750,2010-12-14T17:26:08+00:00
4566,LTFD,medium_airport,"Balıkesir Koca Seyit Airport",39.5546,27.0138,50,AS,Turkey,TR,"Balıkesir Province",TR-10,10,Edremit,1,LTFD,LTFD,EDO,,,https://en.wikipedia.org/wiki/Bal%C4%B1kesir_Koca_Seyit_Airport,,750,2021-11-17T08:03:45+00:00
5069,OAHR,medium_airport,"Herat - Khwaja Abdullah Ansari International Airport",34.209999,62.228298,3206,AS,Afghanistan,AF,"Herat Province",AF-HER,HER,Guzara,1,OAHR,OAHR,HEA,,,https://en.wikipedia.org/wiki/Herat_International_Airport,,750,2021-10-29T21:33:09+00:00
5093,OEHL,medium_airport,"Ha'il Airport",27.437901,41.686298,3331,AS,"Saudi Arabia",SA,"Ha'il Region",SA-06,06,Ha'il,1,OEHL,OEHL,HAS,,,https://en.wikipedia.org/wiki/Ha'il_Regional_Airport,"Hail Airport",750,2016-10-05T12:28:09+00:00
5620,RJTH,medium_airport,"Hachijojima Airport",33.115002,139.785995,303,AS,Japan,JP,"Tōkyō Prefecture",JP-13,13,Hachijojima,1,RJTH,RJTH,HAC,,https://hachijoapo.net/,https://en.wikipedia.org/wiki/Hachijojima_Airport,,750,2024-05-09T16:00:40+00:00
