id,ident,type,name,latitude_deg,longitude_deg,elevation_ft,continent,country_name,iso_country,region_name,iso_region,local_region,municipality,scheduled_service,gps_code,icao_code,iata_code,local_code,home_link,wikipedia_link,keywords,score,last_updated
27145,YSSY,large_airport,"Sydney Kingsford Smith International Airport",-33.946098,151.177002,21,OC,Australia,AU,"New South Wales",AU-NSW,NSW,"Sydney (Mascot)",1,YSSY,YSSY,SYD,,http://www.sydneyairport.com.au/,https://en.wikipedia.org/wiki/Sydney_Airport,"Kingsford Smith, Mascot, RAAF Station Mascot",1027975,2025-01-30T14:06:16+00:00
27066,YMML,large_airport,"Melbourne Airport",-37.661548,144.836432,434,OC,Australia,AU,Victoria,AU-VIC,VIC,Melbourne,1,YMML,YMML,MEL,,http://melbourneairport.com.au/,https://en.wikipedia.org/wiki/Melbourne_Airport,"Melbourne International, Tullamarine",1016075,2025-03-08T17:34:29+00:00
5023,NZAA,large_airport,"Auckland International Airport",-37.01199,174.786331,23,OC,"New Zealand",NZ,"Auckland Region",NZ-AUK,AUK,Auckland,1,NZAA,NZAA,AKL,,http://www.auckland-airport.co.nz/,https://en.wikipedia.org/wiki/Auckland_International_Airport,,51475,2022-03-29T22:03:00+00:00
26901,YBBN,large_airport,"Brisbane International Airport",-27.384199142456055,153.11700439453125,13,OC,Australia,AU,Queensland,AU-QLD,QLD,Brisbane,1,YBBN,YBBN,BNE,,,https://en.wikipedia.org/wiki/Brisbane_Airport,,1013175,2008-06-26T14:52:34+00:00
5026,NZCH,large_airport,"Christchurch International Airport",-43.48939895629883,172.53199768066406,123,OC,"New Zealand",NZ,"Canterbury Region",NZ-CAN,CAN,Christchurch,1,NZCH,NZCH,CHC,,http://www.christchurchairport.co.nz/,https://en.wikipedia.org/wiki/Christchurch_International_Airport,,1275,2008-06-13T14:30:04+00:00
27119,YPPH,large_airport,"Perth International Airport",-31.94029998779297,115.96700286865234,67,OC,Australia,AU,"Western Australia",AU-WA,WA,Perth,1,YPPH,YPPH,PER,,,https://en.wikipedia.org/wiki/Perth_Airport,,51375,2008-06-26T14:52:34+00:00
26904,YBCS,medium_airport,"Cairns International Airport",-16.885799408,145.755004883,10,OC,Australia,AU,Queensland,AU-QLD,QLD,Cairns,1,YBCS,YBCS,CNS,,,https://en.wikipedia.org/wiki/Cairns_International_Airport,,750,2010-08-29T23:17:14+00:00
5449,PHLI,medium_airport,"Lihue Airport",21.976,-159.339005,153,OC,"United States",US,Hawaii,US-HI,HI,Lihue,1,PHLI,PHLI,LIH,LIH,,https://en.wikipedia.org/wiki/Lihu'e_Airport,,750,2022-03-08T16:02:06+00:00
27096,YPAD,large_airport,"Adelaide International Airport",-34.947512,138.533393,20,OC,Australia,AU,"South Australia",AU-SA,SA,Adelaide,1,YPAD,YPAD,ADL,,,https://en.wikipedia.org/wiki/Adelaide_International_Airport,,1000,2021-10-07T11:04:02+00:00
5457,PHTO,medium_airport,"Hilo International Airport",19.721399,-155.048004,38,OC,"United States",US,Hawaii,US-HI,HI,Hilo,1,PHTO,PHTO,ITO,ITO,,https://en.wikipedia.org/wiki/Hilo_International_Airport,,750,2022-03-08T16:02:24+00:00
4959,NFFN,medium_airport,"Nadi International Airport",-17.755399703979492,177.4429931640625,59,OC,Fiji,FJ,"Western Division",FJ-W,W,Nadi,1,NFFN,NFFN,NAN,,,https://en.wikipedia.org/wiki/Nadi_International_Airport,,750,2008-12-19T20:09:58+00:00
27101,YPDN,large_airport,"Darwin International Airport / RAAF Darwin",-12.41497,130.88185,103,OC,Australia,AU,"Northern Territory",AU-NT,NT,Darwin,1,YPDN,YPDN,DRW,,https://www.darwinairport.com.au/,https://en.wikipedia.org/wiki/Darwin_International_Airport,,1000,2023-04-11T00:54:10+00:00
5063,NZWN,large_airport,"Wellington International Airport",-41.327202,174.804993,41,OC,"New Zealand",NZ,"Wellington Region",NZ-WGN,WGN,Wellington,1,NZWN,NZWN,WLG,,http://www.wellingtonairport.co.nz/,https://en.wikipedia.org/wiki/Wellington_Airport,,1275,2025-03-02T04:27:32+00:00
26902,YBCG,medium_airport,"Gold Coast Airport",-28.165962,153.506641,21,OC,Australia,AU,Queensland,AU-QLD,QLD,"Gold Coast",1,YBCG,YBCG,OOL,,,https://en.wikipedia.org/wiki/Gold_Coast_Airport,,750,2022-01-21T19:07:44+00:00
5051,NZQN,medium_airport,"Queenstown International Airport",-45.021099,168.738998,1171,OC,"New Zealand",NZ,"Otago Region",NZ-OTA,OTA,Queenstown,1,NZQN,NZQN,ZQN,,https://www.queenstownairport.co.nz/,https://en.wikipedia.org/wiki/Queenstown_International_Airport,,750,2024-05-09T15:42:04+00:00
27131,YSCB,medium_airport,"Canberra Airport",-35.3069,149.195007,1886,OC,Australia,AU,"Australian Capital Territory",AU-ACT,ACT,Canberra,1,YSCB,YSCB,CBR,,,https://en.wikipedia.org/wiki/Canberra_Airport,"RAAF Base Fairbairn",750,2025-03-08T19:07:44+00:00
4979,NTAA,large_airport,"Faa'a International Airport",-17.553699,-149.606995,5,OC,"French Polynesia",PF,(unassigned),PF-U-A,U-A,Papeete,1,NTAA,NTAA,PPT,,https://www.aeroports-voyages.fr/en/airport/tahiti-island/PPT,https://en.wikipedia.org/wiki/Faa'a_International_Airport,,1050,2022-05-06T09:08:22+00:00
27058,YMHB,medium_airport,"Hobart International Airport",-42.8371,147.51295,13,OC,Australia,AU,Tasmania,AU-TAS,TAS,"Hobart (Cambridge)",1,YMHB,YMHB,HBA,,,https://en.wikipedia.org/wiki/Hobart_International_Airport,,750,2025-03-08T06:58:06+00:00
5433,PGUM,large_airport,"Antonio B. Won Pat International Airport",13.4834,144.796005,298,OC,Guam,GU,(unassigned),GU-U-A,U-A,Hagåtña,1,PGUM,PGUM,GUM,GUM,http://www.guamairport.com/,https://en.wikipedia.org/wiki/Antonio_B._Won_Pat_International_Airport,Agana,1050,2022-06-15T00:59:59+00:00
26900,YBAS,medium_airport,"Alice Springs Airport",-23.806588,133.903427,1789,OC,Australia,AU,"Northern Territory",AU-NT,NT,"Alice Springs",1,YBAS,YBAS,ASP,,http://www.alicespringsairport.com.au/,https://en.wikipedia.org/wiki/Alice_Springs_Airport,,750,2022-08-15T12:18:36+00:00
27063,YMLT,medium_airport,"Launceston Airport",-41.544935,147.210785,562,OC,Australia,AU,Tasmania,AU-TAS,TAS,"Launceston (Western Junction)",1,YMLT,YMLT,LST,,http://www.launcestonairport.com.au/,https://en.wikipedia.org/wiki/Launceston_Airport,,750,2025-03-08T08:42:22+00:00
26934,YBTL,medium_airport,"Townsville Airport / RAAF Base Townsville",-19.252904,146.766512,18,OC,Australia,AU,Queensland,AU-QLD,QLD,Townsville,1,YBTL,YBTL,TSV,,http://www.townsvilleairport.com.au/,https://en.wikipedia.org/wiki/Townsville_Airport,"RAAF Base Garbutt, RAAF Base Townsville",750,2021-04-19T00:53:06+00:00
26895,YAYE,medium_airport,"Ayers Rock Connellan Airport",-25.185913,130.97703,1626,OC,Australia,AU,"Northern Territory",AU-NT,NT,Yulara,1,YAYE,YAYE,AYQ,,,https://en.wikipedia.org/wiki/Ayers_Rock_Airport,"Ayers Rock,Uluru",750,2022-08-15T12:05:24+00:00
27130,YSBK,medium_airport,"Sydney Bankstown Airport",-33.923618,150.990792,29,OC,Australia,AU,"New South Wales",AU-NSW,NSW,Sydney,0,YSBK,YSBK,BWU,,,https://en.wikipedia.org/wiki/Bankstown_Airport,,250,2022-01-30T15:10:18+00:00
5028,NZDN,medium_airport,"Dunedin International Airport",-45.928101,170.197998,4,OC,"New Zealand",NZ,"Otago Region",NZ-OTA,OTA,Dunedin,1,NZDN,NZDN,DUD,,http://www.dnairport.co.nz/,https://en.wikipedia.org/wiki/Dunedin_International_Airport,,750,2021-08-06T16:50:17+00:00
26918,YBSU,medium_airport,"Sunshine Coast Airport",-26.593324,153.08319,15,OC,Australia,AU,Queensland,AU-QLD,QLD,Maroochydore,1,YBSU,YBSU,MCY,,http://www.sunshinecoastairport.com.au/,https://en.wikipedia.org/wiki/Sunshine_Coast_Airport,YBMC,750,2022-08-01T14:16:15+00:00
27064,YMMB,medium_airport,"Melbourne Moorabbin Airport",-37.975799560546875,145.1020050048828,50,OC,Australia,AU,Victoria,AU-VIC,VIC,Melbourne,1,YMMB,YMMB,MBW,,http://www.moorabbinairport.com.au/,https://en.wikipedia.org/wiki/Moorabbin_Airport,,750,2009-01-04T04:08:18+00:00
27043,YMAV,medium_airport,"Avalon Airport",-38.039398,144.468994,35,OC,Australia,AU,Victoria,AU-VIC,VIC,Lara,1,YMAV,YMAV,AVV,,https://www.avalonairport.com.au/,https://en.wikipedia.org/wiki/Avalon_Airport,"Lara, Geelong",750,2022-02-22T16:55:05+00:00
5003,NTTB,medium_airport,"Bora Bora Airport",-16.444400787353516,-151.75100708007812,10,OC,"French Polynesia",PF,(unassigned),PF-U-A,U-A,"Motu Mute",1,NTTB,NTTB,BOB,,,https://en.wikipedia.org/wiki/Bora_Bora_Airport,,750,2008-06-13T14:30:04+00:00
67,AYPY,large_airport,"Port Moresby Jacksons International Airport",-9.443380355834961,147.22000122070312,146,OC,"Papua New Guinea",PG,"National Capital District (Port Moresby)",PG-NCD,NCD,"Port Moresby",1,AYPY,AYPY,POM,,,https://en.wikipedia.org/wiki/Jacksons_International_Airport,,1275,2008-12-30T09:28:14+00:00
5011,NVVV,large_airport,"Bauerfield International Airport",-17.699301,168.320007,70,OC,Vanuatu,VU,Shefa,VU-SEE,SEE,"Port Vila",1,NVVV,NVVV,VLI,,,https://en.wikipedia.org/wiki/Bauerfield_International_Airport,"Efate Field, Vila Field, McDonald Field, Bauer Field",1000,2021-03-26T16:07:15+00:00
5044,NZNS,medium_airport,"Nelson Airport",-41.298302,173.220993,17,OC,"New Zealand",NZ,"Nelson Region",NZ-NSN,NSN,Nelson,1,NZNS,NZNS,NSN,,http://www.nelsonairport.co.nz/,https://en.wikipedia.org/wiki/Nelson_Airport_(New_Zealand),,750,2021-12-06T17:42:47+00:00
26909,YBHM,medium_airport,"Hamilton Island Airport",-20.3581008911,148.95199585,15,OC,Australia,AU,Queensland,AU-QLD,QLD,"Hamilton Island",1,YBHM,YBHM,HTI,,http://www.hamiltonisland.com.au/airport/,https://en.wikipedia.org/wiki/Hamilton_Island_Airport,,750,2010-09-02T09:11:16+00:00
5432,PGUA,medium_airport,"Andersen Air Force Base",13.584,144.929998,627,OC,Guam,GU,(unassigned),GU-U-A,U-A,Yigo,0,PGUA,PGUA,UAM,UAM,http://www.andersen.af.mil/,https://en.wikipedia.org/wiki/Andersen_Air_Force_Base,,475,2022-06-15T00:59:37+00:00
4958,NCRG,medium_airport,"Rarotonga International Airport",-21.2027,-159.806,19,OC,"Cook Islands",CK,(unassigned),CK-U-A,U-A,Avarua,1,NCRG,NCRG,RAR,,,https://en.wikipedia.org/wiki/Rarotonga_International_Airport,,750,2022-08-01T16:29:29+00:00
5450,PHMK,medium_airport,"Molokai Airport",21.152901,-157.095993,454,OC,"United States",US,Hawaii,US-HI,HI,Kaunakakai,1,PHMK,PHMK,MKK,MKK,,https://en.wikipedia.org/wiki/Molokai_Airport,,750,2022-03-08T16:02:37+00:00
26925,YBRK,medium_airport,"Rockhampton Airport",-23.380019,150.475359,34,OC,Australia,AU,Queensland,AU-QLD,QLD,Rockhampton,1,YBRK,YBRK,ROK,,http://www.rok.aero/,https://en.wikipedia.org/wiki/Rockhampton_Airport,,750,2022-01-21T20:03:36+00:00
5506,PWAK,medium_airport,"Wake Island Airfield",19.282437,166.636637,14,OC,"United States Minor Outlying Islands",UM,"Wake Island",UM-79,79,"Wake Island",1,PWAK,PWAK,AWK,AWK,,https://en.wikipedia.org/wiki/Wake_Island_Airfield,,500,2022-01-12T17:48:34+00:00
27106,YPJT,medium_airport,"Perth Jandakot Airport",-32.09749984741211,115.88099670410156,99,OC,Australia,AU,"Western Australia",AU-WA,WA,Perth,0,YPJT,YPJT,JAD,,,https://en.wikipedia.org/wiki/Jandakot_Airport,,250,2008-06-26T14:52:34+00:00
26897,YBAF,small_airport,"Brisbane Archerfield Airport",-27.572351,153.004167,63,OC,Australia,AU,Queensland,AU-QLD,QLD,Brisbane,0,YBAF,,,,,https://en.wikipedia.org/wiki/Archerfield_Airport,"RAAF Station Archerfield, ACF",50,2022-04-18T21:29:32+00:00
5052,NZRO,medium_airport,"Rotorua Regional Airport",-38.1092,176.317001,935,OC,"New Zealand",NZ,"Bay of Plenty Region",NZ-BOP,BOP,Rotorua,1,NZRO,NZRO,ROT,,https://www.rotorua-airport.co.nz/,https://en.wikipedia.org/wiki/Rotorua_Regional_Airport,,750,2024-05-09T15:39:01+00:00
27051,YMEN,medium_airport,"Melbourne Essendon Airport",-37.7281,144.901993,282,OC,Australia,AU,Victoria,AU-VIC,VIC,"Essendon Fields",1,YMEN,YMEN,MEB,,http://www.essendonairport.com.au/,https://en.wikipedia.org/wiki/Essendon_Airport,,500,2022-02-22T16:55:25+00:00
26927,YBRM,medium_airport,"Broome International Airport",-17.948789,122.227407,56,OC,Australia,AU,"Western Australia",AU-WA,WA,Broome,1,YBRM,YBRM,BME,,,https://en.wikipedia.org/wiki/Broome_International_Airport,,750,2022-11-28T16:44:48+00:00
5431,PGSN,medium_airport,"Saipan International Airport",15.119,145.729004,215,OC,"Northern Mariana Islands",MP,(unassigned),MP-U-A,U-A,"I Fadang, Saipan",1,PGSN,PGSN,SPN,GSN,,https://en.wikipedia.org/wiki/Saipan_International_Airport,"Francisco C. Ada",750,2022-01-12T17:52:03+00:00
5490,PKWA,medium_airport,"Bucholz Army Air Field",8.720120429992676,167.73199462890625,9,OC,"Marshall Islands",MH,Kwajalein,MH-KWA,KWA,Kwajalein,1,PKWA,PKWA,KWA,KWA,,https://en.wikipedia.org/wiki/Bucholz_Army_Airfield,,750,2008-12-30T09:22:31+00:00
5454,PHNY,medium_airport,"Lanai Airport",20.785675,-156.951324,1308,OC,"United States",US,Hawaii,US-HI,HI,"Lanai City",1,PHNY,PHNY,LNY,LNY,,https://en.wikipedia.org/wiki/Lanai_Airport,,750,2022-03-08T16:02:58+00:00
5488,PKMJ,medium_airport,"Marshall Islands International Airport",7.06476,171.272003,6,OC,"Marshall Islands",MH,Majuro,MH-MAJ,MAJ,"Majuro Atoll",1,PKMJ,PKMJ,MAJ,MAJ,,https://en.wikipedia.org/wiki/Marshall_Islands_International_Airport,,750,2024-03-22T10:45:27+00:00
5006,NTTM,medium_airport,"Moorea Temae Airport",-17.48979,-149.761777,9,OC,"French Polynesia",PF,(unassigned),PF-U-A,U-A,Moorea-Maiao,1,NTTM,NTTM,MOZ,,,https://en.wikipedia.org/wiki/Moorea_Airport,"Temae Airport, Moorea Temae Airport",750,2021-10-12T16:01:16+00:00
27175,YWLM,medium_airport,"Newcastle Airport",-32.79499816894531,151.83399963378906,31,OC,Australia,AU,"New South Wales",AU-NSW,NSW,Williamtown,1,YWLM,YWLM,NTL,,,https://en.wikipedia.org/wiki/Newcastle_Airport_(Williamtown),"RAAF Base Williamtown",750,2009-02-09T10:33:52+00:00
27118,YPPF,small_airport,"Adelaide Parafield Airport",-34.793300628699996,138.632995605,57,OC,Australia,AU,"South Australia",AU-SA,SA,Adelaide,0,YPPF,,,,http://www.adelaideairport.com.au/corporate-and-community/adelaide-airport-limited/airports,https://en.wikipedia.org/wiki/Parafield_Airport,,50,2010-09-12T09:05:54+00:00
27132,YCFS,medium_airport,"Coffs Harbour Airport",-30.320601,153.115997,18,OC,Australia,AU,"New South Wales",AU-NSW,NSW,"Coffs Harbour",1,YCFS,YCFS,CFS,,,https://en.wikipedia.org/wiki/Coffs_Harbour_Airport,"RAAF Base Coffs Harbour",750,2020-10-04T12:54:28+00:00
5444,PHHN,medium_airport,"Hana Airport",20.795601,-156.014008,78,OC,"United States",US,Hawaii,US-HI,HI,Hana,1,PHHN,PHHN,HNM,HNM,,https://en.wikipedia.org/wiki/Hana_Airport,,750,2022-03-08T16:03:36+00:00
27060,YMIA,medium_airport,"Mildura Airport",-34.229198455799995,142.085998535,167,OC,Australia,AU,Victoria,AU-VIC,VIC,Mildura,1,YMIA,YMIA,MQL,,http://www.milduraairport.com.au/,https://en.wikipedia.org/wiki/Mildura_Airport,,750,2010-09-06T15:50:38+00:00
5447,PHJR,medium_airport,"Kalaeloa Airport",21.3074,-158.070009,30,OC,"United States",US,Hawaii,US-HI,HI,Kapolei,0,PHJR,PHJR,JRF,JRF,http://airports.hawaii.gov/jrf/,https://en.wikipedia.org/wiki/Kalaeloa_Airport,"NAX, Naval Air Station Barbers Point, John Rodgers Field",275,2022-03-08T16:03:18+00:00
27133,YSCN,medium_airport,"Camden Airport",-34.038338,150.686406,230,OC,Australia,AU,"New South Wales",AU-NSW,NSW,Cobbitty,0,YSCN,YSCN,CDU,,,https://en.wikipedia.org/wiki/Camden_Airport,,250,2022-01-21T19:19:39+00:00
30138,NZMF,small_airport,"Milford Sound Airport",-44.673302,167.923004,10,OC,"New Zealand",NZ,"Southland Region",NZ-STL,STL,,0,NZMF,NZMF,MFN,,,https://en.wikipedia.org/wiki/Milford_Sound_Airport,,50,2024-05-09T15:43:37+00:00
26920,YBNA,medium_airport,"Ballina Byron Gateway Airport",-28.833236,153.561471,7,OC,Australia,AU,"New South Wales",AU-NSW,NSW,Ballina,1,YBNA,YBNA,BNK,,,https://en.wikipedia.org/wiki/Ballina_Airport,,750,2022-01-21T19:06:20+00:00
5033,NZHN,medium_airport,"Hamilton International Airport",-37.8666992188,175.332000732,172,OC,"New Zealand",NZ,"Waikato Region",NZ-WKO,WKO,Hamilton,1,NZHN,NZHN,HLZ,,http://www.hamiltonairport.co.nz/,https://en.wikipedia.org/wiki/Hamilton_International_Airport,,750,2010-09-06T15:45:53+00:00
5446,PHJH,medium_airport,"Kapalua Airport",20.9629,-156.673004,256,OC,"United States",US,Hawaii,US-HI,HI,Lahaina,1,PHJH,PHJH,JHM,JHM,,https://en.wikipedia.org/wiki/Kapalua_Airport,,750,2022-03-08T16:04:08+00:00
5043,NZNR,medium_airport,"Hawke's Bay Airport",-39.465801,176.869995,6,OC,"New Zealand",NZ,"Hawke's Bay Region",NZ-HKB,HKB,Napier,1,NZNR,NZNR,NPE,,http://www.hawkesbay-airport.co.nz/,https://en.wikipedia.org/wiki/Napier_Airport,,750,2016-09-19T03:35:56+00:00
4960,NFNA,medium_airport,"Nausori International Airport",-18.04330062866211,178.5590057373047,17,OC,Fiji,FJ,"Central Division",FJ-C,C,Nausori,1,NFNA,NFNA,SUV,,,https://en.wikipedia.org/wiki/Nausori_International_Airport,,750,2008-12-19T20:10:04+00:00
5021,NWWW,medium_airport,"La Tontouta International Airport",-22.014601,166.212997,52,OC,"New Caledonia",NC,"Province Sud",NC-03,03,"Nouméa (La Tontouta)",1,NWWW,NWWW,NOU,,http://www.cci-nc.com/tontouta/index.php,https://en.wikipedia.org/wiki/La_Tontouta_International_Airport,"Aéroport de Nouméa - La Tontouta",750,2021-10-29T16:32:58+00:00
5500,PTPN,medium_airport,"Pohnpei International Airport",6.985099792480469,158.20899963378906,10,OC,Micronesia,FM,"Pohnpei State",FM-PNI,PNI,"Pohnpei Island",1,PTPN,PTPN,PNI,PNI,,https://en.wikipedia.org/wiki/Pohnpei_International_Airport,Ponape,750,2008-08-19T08:13:14+00:00
5441,PHBK,medium_airport,"Barking Sands Airport",22.0228,-159.785004,23,OC,"United States",US,Hawaii,US-HI,HI,Kekaha,0,PHBK,PHBK,BKH,BKH,,https://en.wikipedia.org/wiki/Pacific_Missile_Range_Facility,"Pacific Missle Range Facility Barking Sands, Kauai",250,2022-03-08T16:03:27+00:00
5442,PHDH,small_airport,"Kawaihapai Airfield",21.5795,-158.197006,14,OC,"United States",US,Hawaii,US-HI,HI,Mokuleia,0,PHDH,PHDH,HDH,HDH,,https://en.wikipedia.org/wiki/Dillingham_Airfield,Dillingham,150,2024-03-21T22:42:10+00:00
26958,YCNK,small_airport,"Cessnock Airport",-32.787498,151.341995,210,OC,Australia,AU,"New South Wales",AU-NSW,NSW,,0,YCNK,YCNK,CES,,http://www.cessnock.nsw.gov.au/community/business/airport,https://en.wikipedia.org/wiki/Cessnock_Airport,,50,2018-05-14T01:30:29+00:00
27028,YKSC,medium_airport,"Kingscote Airport",-35.71390151977539,137.52099609375,24,OC,Australia,AU,"South Australia",AU-SA,SA,,1,YKSC,YKSC,KGC,,,https://en.wikipedia.org/wiki/Kingscote_Airport,,750,2008-06-26T14:52:34+00:00
27177,YSHL,medium_airport,"Shellharbour Airport",-34.5611,150.789001,31,OC,Australia,AU,"New South Wales",AU-NSW,NSW,"Albion Park Rail",1,YSHL,,WOL,,https://www.shellharbourairport.com.au/,https://en.wikipedia.org/wiki/Shellharbour_Airport,"YWOL, RAAF Albion Park, Illawarra Regional Airport, Albion Park Aerodrome, Wollongong Airport",750,2024-05-09T15:46:49+00:00
4976,NSFA,medium_airport,"Faleolo International Airport",-13.829999923706055,-172.00799560546875,58,OC,Samoa,WS,"A'ana District",WS-AA,AA,Apia,1,NSFA,NSFA,APW,,,https://en.wikipedia.org/wiki/Faleolo_International_Airport,,750,2009-08-31T16:22:49+00:00
27108,YPKG,medium_airport,"Kalgoorlie Boulder Airport",-30.791543,121.464586,1203,OC,Australia,AU,"Western Australia",AU-WA,WA,Broadwood,1,YPKG,YPKG,KGI,,,https://en.wikipedia.org/wiki/Kalgoorlie-Boulder_Airport,,750,2022-09-07T10:10:40+00:00
26908,YBHI,medium_airport,"Broken Hill Airport",-32.0013999939,141.472000122,958,OC,Australia,AU,"New South Wales",AU-NSW,NSW,"Broken Hill",1,YBHI,YBHI,BHQ,,,https://en.wikipedia.org/wiki/Broken_Hill_Airport,,750,2010-09-02T08:45:23+00:00
26936,YBUD,medium_airport,"Bundaberg Airport",-24.905039,152.322612,107,OC,Australia,AU,Queensland,AU-QLD,QLD,Bundaberg,1,YBUD,YBUD,BDB,,http://bundaberg.qld.gov.au/services/airport,https://en.wikipedia.org/wiki/Bundaberg_Airport,,750,2022-01-21T19:59:44+00:00
5045,NZNV,medium_airport,"Invercargill Airport",-46.41239929199219,168.31300354003906,5,OC,"New Zealand",NZ,"Southland Region",NZ-STL,STL,Invercargill,1,NZNV,NZNV,IVC,,http://www.invercargillairport.co.nz/index.htm,https://en.wikipedia.org/wiki/Invercargill_Airport,,750,2008-06-13T14:30:04+00:00
4962,NFTF,medium_airport,"Fua'amotu International Airport",-21.241199493408203,-175.14999389648438,126,OC,Tonga,TO,Tongatapu,TO-04,04,Nuku'alofa,1,NFTF,NFTF,TBU,,,https://en.wikipedia.org/wiki/Fua'amotu_International_Airport,,750,2008-12-30T14:11:16+00:00
5049,NZPM,medium_airport,"Palmerston North Airport",-40.320599,175.617004,151,OC,"New Zealand",NZ,"Manawatu-Wanganui Region",NZ-MWT,MWT,"Palmerston North",1,NZPM,NZPM,PMR,,http://www.pnairport.co.nz/index.php,https://en.wikipedia.org/wiki/Palmerston_North_International_Airport,,750,2023-04-11T00:48:21+00:00
27147,YSTW,medium_airport,"Tamworth Airport",-31.077898,150.845484,1334,OC,Australia,AU,"New South Wales",AU-NSW,NSW,Tamworth,1,YSTW,YSTW,TMW,,http://www.tamworth.nsw.gov.au/Council/Council-Enterprises-and-Venues/Tamworth-Regional-Airport/Tamworth-Regional-Airport/defaul,https://en.wikipedia.org/wiki/Tamworth_Airport,,750,2022-01-30T03:18:22+00:00
5060,NZWF,medium_airport,"Wanaka Airport",-44.722954,169.248419,1142,OC,"New Zealand",NZ,"Otago Region",NZ-OTA,OTA,Wanaka,1,NZWF,NZWF,WKA,,,https://en.wikipedia.org/wiki/Wanaka_Airport,"Luggate Airport",750,2021-10-14T17:36:21+00:00
5499,PTKK,medium_airport,"Chuuk International Airport",7.461870193481445,151.84300231933594,11,OC,Micronesia,FM,"Chuuk State",FM-TRK,TRK,"Weno Island",1,PTKK,PTKK,TKK,TKK,,https://en.wikipedia.org/wiki/Chuuk_International_Airport,,750,2008-08-19T08:12:40+00:00
5503,PTYA,medium_airport,"Yap International Airport",9.49891,138.082993,91,OC,Micronesia,FM,"Yap State",FM-YAP,YAP,"Yap Island",1,PTYA,PTYA,YAP,T11,,https://en.wikipedia.org/wiki/Yap_International_Airport,,750,2016-02-25T21:57:47+00:00
26937,YBUN,small_airport,"Bunbury Airport",-33.3783,115.677002,53,OC,Australia,AU,"Western Australia",AU-WA,WA,,0,YBUN,YBUN,BUY,,,https://en.wikipedia.org/wiki/Bunbury_Airport,,50,2024-05-18T11:58:28+00:00
30001,NZKI,small_airport,"Kaikoura Airport",-42.424999,173.604996,20,OC,"New Zealand",NZ,"Canterbury Region",NZ-CAN,CAN,,0,NZKI,NZKI,KBZ,,,https://en.wikipedia.org/wiki/Kaikoura_Airport,,50,2024-05-18T11:44:16+00:00
27141,YSNF,medium_airport,"Norfolk Island International Airport",-29.041887,167.939616,371,OC,"Norfolk Island",NF,(unassigned),NF-U-A,U-A,"Burnt Pine",1,YSNF,YSNF,NLK,,http://www.airport.gov.nf/,https://en.wikipedia.org/wiki/Norfolk_Island_Airport,,750,2021-04-23T09:41:37+00:00
27148,YSWG,medium_airport,"Wagga Wagga Airport",-35.163484,147.46832,724,OC,Australia,AU,"New South Wales",AU-NSW,NSW,"Forest Hill",1,YSWG,YSWG,WGA,,http://www.wagga.nsw.gov.au/www/html/271-airport.asp,https://en.wikipedia.org/wiki/Wagga_Wagga_Airport,"RAAF Base Wagga",750,2025-03-08T18:52:13+00:00
26919,YBMK,medium_airport,"Mackay Airport",-21.170816,149.182588,19,OC,Australia,AU,Queensland,AU-QLD,QLD,Mackay,1,YBMK,YBMK,MKY,,http://www.mackayairport.com.au/,https://en.wikipedia.org/wiki/Mackay_Airport,,750,2022-01-21T20:21:08+00:00
8,ANYN,medium_airport,"Nauru International Airport",-0.547458,166.919006,22,OC,Nauru,NR,Yaren,NR-14,14,"Yaren District",1,ANYN,ANYN,INU,,,https://en.wikipedia.org/wiki/Nauru_International_Airport,,500,2025-03-08T11:07:07+00:00
27149,YSWH,medium_airport,"Swan Hill Airport",-35.37580108642578,143.5330047607422,234,OC,Australia,AU,Victoria,AU-VIC,VIC,,0,YSWH,YSWH,SWH,,,https://en.wikipedia.org/wiki/Swan_Hill_Airport,,250,2008-06-26T14:52:34+00:00
27129,YRTI,small_airport,"Rottnest Island Airport",-32.006699,115.540001,12,OC,Australia,AU,"Western Australia",AU-WA,WA,,0,YRTI,YRTI,RTS,,,https://en.wikipedia.org/wiki/Rottnest_Island_Airport,,150,2021-07-19T00:04:31+00:00
26906,YBDG,small_airport,"Bendigo Airport",-36.739399,144.330002,705,OC,Australia,AU,Victoria,AU-VIC,VIC,,1,YBDG,YBDG,BXG,,https://www.bendigo.vic.gov.au/Services/Bendigo-Airport,https://en.wikipedia.org/wiki/Bendigo_Airport_(Australia),,100,2023-04-09T18:03:00+00:00
3,AGGH,large_airport,"Honiara International Airport",-9.428,160.054993,28,OC,"Solomon Islands",SB,"Guadalcanal Province",SB-GU,GU,Honiara,1,AGGH,AGGH,HIR,,,https://en.wikipedia.org/wiki/Honiara_International_Airport,"Henderson Field",1000,2021-11-18T16:58:52+00:00
27097,YPAG,medium_airport,"Port Augusta Airport",-32.506900787353516,137.7169952392578,56,OC,Australia,AU,"South Australia",AU-SA,SA,,1,YPAG,YPAG,PUG,,,https://en.wikipedia.org/wiki/Port_Augusta_Airport,,750,2008-06-26T14:52:34+00:00
26888,YABA,medium_airport,"Albany Airport",-34.94329833984375,117.80899810791016,233,OC,Australia,AU,"Western Australia",AU-WA,WA,Albany,1,YABA,YABA,ALH,,,https://en.wikipedia.org/wiki/Albany_Airport_(Australia),"ABA, YPAL",750,2008-06-26T14:52:34+00:00
26932,YBTH,medium_airport,"Bathurst Airport",-33.406817,149.651161,2435,OC,Australia,AU,"New South Wales",AU-NSW,NSW,Bathurst,1,YBTH,YBTH,BHS,,,https://en.wikipedia.org/wiki/Bathurst_Airport_(New_South_Wales),,750,2022-01-30T23:03:08+00:00
26991,YGEL,medium_airport,"Geraldton Airport",-28.796101,114.707001,121,OC,Australia,AU,"Western Australia",AU-WA,WA,Moonyoonooka,1,YGEL,YGEL,GET,,,https://en.wikipedia.org/wiki/Geraldton_Airport,,750,2025-03-17T00:22:31+00:00
26917,YBMA,medium_airport,"Mount Isa Airport",-20.663900375399997,139.488998413,1121,OC,Australia,AU,Queensland,AU-QLD,QLD,"Mount Isa",1,YBMA,YBMA,ISA,,,https://en.wikipedia.org/wiki/Mount_Isa_Airport,,750,2010-08-29T23:17:41+00:00
5042,NZNP,medium_airport,"New Plymouth Airport",-39.00859832763672,174.1790008544922,97,OC,"New Zealand",NZ,"Taranaki Region",NZ-TKI,TKI,"New Plymouth",1,NZNP,NZNP,NPL,,,https://en.wikipedia.org/wiki/New_Plymouth_Airport,,750,2009-08-23T20:04:23+00:00
4972,NGTA,medium_airport,"Bonriki International Airport",1.38164,173.147003,9,OC,Kiribati,KI,"Gilbert Islands",KI-G,G,Tarawa,1,NGTA,NGTA,TRW,,,https://en.wikipedia.org/wiki/Bonriki_International_Airport,"Bonriki, Mullinix",750,2020-12-18T00:15:49+00:00
5055,NZTG,medium_airport,"Tauranga Airport",-37.67190170288086,176.1959991455078,13,OC,"New Zealand",NZ,"Bay of Plenty Region",NZ-BOP,BOP,Tauranga,1,NZTG,NZTG,TRG,,,https://en.wikipedia.org/wiki/Tauranga_Airport,,750,2009-08-23T21:06:23+00:00
5502,PTSA,medium_airport,"Kosrae International Airport",5.35698,162.957993,11,OC,Micronesia,FM,"Kosrae State",FM-KSA,KSA,Okat,1,PTSA,PTSA,KSA,TTK,,https://en.wikipedia.org/wiki/Kosrae_International_Airport,"Caroline Islands Airport",575,2016-02-25T21:50:18+00:00
5501,PTRO,medium_airport,"Babelthuap Airport",7.36731,134.544236,176,OC,Palau,PW,Airai,PW-004,004,"Babelthuap Island",1,PTRO,PTRO,ROR,ROR,,https://en.wikipedia.org/wiki/Palau_International_Airport,,500,2020-12-18T10:36:55+00:00
26979,YECH,medium_airport,"Echuca Airport",-36.15719985961914,144.76199340820312,323,OC,Australia,AU,Victoria,AU-VIC,VIC,,0,YECH,YECH,ECH,,,https://en.wikipedia.org/wiki/Echuca_Airport,,250,2008-06-26T14:52:34+00:00
27138,YSHT,medium_airport,"Shepparton Airport",-36.428341,145.391473,374,OC,Australia,AU,Victoria,AU-VIC,VIC,,0,YSHT,YSHT,SHT,,,https://en.wikipedia.org/wiki/Shepparton_Airport,,250,2022-02-17T15:04:23+00:00
27048,YMDG,medium_airport,"Mudgee Airport",-32.564794,149.609452,1545,OC,Australia,AU,"New South Wales",AU-NSW,NSW,Mudgee,0,YMDG,YMDG,DGE,,,https://en.wikipedia.org/wiki/Mudgee_Airport,,250,2022-01-30T23:05:03+00:00
27095,YORG,medium_airport,"Orange Airport",-33.382014,149.131262,3115,OC,Australia,AU,"New South Wales",AU-NSW,NSW,Orange,0,YORG,YORG,OAG,,,https://en.wikipedia.org/wiki/Orange_Airport,,250,2022-01-30T23:01:52+00:00
27721,YLHI,small_airport,"Lord Howe Island Airport",-31.538204,159.07546,5,OC,Australia,AU,"New South Wales",AU-NSW,NSW,"Lord Howe Island",1,YLHI,YLHI,LDH,,,https://en.wikipedia.org/wiki/Lord_Howe_Island_Airport,,150,2021-03-01T20:13:06+00:00
24070,PHPA,small_airport,"Port Allen Airport",21.8969,-159.602997,24,OC,"United States",US,Hawaii,US-HI,HI,Hanapepe,0,PHPA,PHPA,PAK,PAK,,https://en.wikipedia.org/wiki/Port_Allen_Airport,,50,2022-03-08T16:07:15+00:00
26907,YBDV,medium_airport,"Birdsville Airport",-25.897499084472656,139.34800720214844,159,OC,Australia,AU,Queensland,AU-QLD,QLD,,1,YBDV,YBDV,BVI,,,https://en.wikipedia.org/wiki/Birdsville_Airport,,750,2008-06-26T14:52:34+00:00
26975,YDPO,medium_airport,"Devonport Airport",-41.1697006226,146.429992676,33,OC,Australia,AU,Tasmania,AU-TAS,TAS,Devonport,1,YDPO,YDPO,DPO,,http://www.tasports.com.au/infrastructure/devonport_airport.html,https://en.wikipedia.org/wiki/Devonport_Airport,,750,2010-09-19T19:41:12+00:00
27044,YMAY,medium_airport,"Albury Airport",-36.066758,146.959148,539,OC,Australia,AU,"New South Wales",AU-NSW,NSW,"East Albury",1,YMAY,YMAY,ABX,,,https://en.wikipedia.org/wiki/Albury_Airport,,750,2025-03-08T18:41:35+00:00
5005,NTTH,medium_airport,"Huahine-Fare Airport",-16.687084,-151.021593,7,OC,"French Polynesia",PF,(unassigned),PF-U-A,U-A,Fare,1,NTTH,NTTH,HUH,,,https://en.wikipedia.org/wiki/Huahine_-_Fare_Airport,,750,2021-10-12T16:00:13+00:00
56,AYGA,medium_airport,"Goroka Airport",-6.081689834590001,145.391998291,5282,OC,"Papua New Guinea",PG,"Eastern Highlands Province",PG-EHG,EHG,Goronka,1,AYGA,AYGA,GKA,,,https://en.wikipedia.org/wiki/Goroka_Airport,,750,2011-07-03T17:55:00+00:00
27003,YHBA,medium_airport,"Hervey Bay Airport",-25.320127,152.880662,60,OC,Australia,AU,Queensland,AU-QLD,QLD,"Hervey Bay",1,YHBA,YHBA,HVB,,,https://en.wikipedia.org/wiki/Hervey_Bay_Airport,,750,2022-01-21T19:55:52+00:00
27107,YPKA,medium_airport,"Karratha Airport",-20.712200164799995,116.773002625,29,OC,Australia,AU,"Western Australia",AU-WA,WA,Karratha,1,YPKA,YPKA,KTA,,,https://en.wikipedia.org/wiki/Karratha_Airport,,750,2010-08-29T23:16:48+00:00
27111,YPKU,medium_airport,"East Kimberley Regional (Kununurra) Airport",-15.7781,128.707993,145,OC,Australia,AU,"Western Australia",AU-WA,WA,Kununurra,1,YPKU,YPKU,KNX,,,https://en.wikipedia.org/wiki/Kununurra_Airport,,750,2021-10-05T10:38:13+00:00
66,AYNZ,medium_airport,"Nadzab Airport",-6.569803,146.725977,239,OC,"Papua New Guinea",PG,"Morobe Province",PG-MPL,MPL,Lae,1,AYNZ,AYNZ,LAE,,,https://en.wikipedia.org/wiki/Lae_Nadzab_Airport,MFO,750,2016-02-13T15:14:35+00:00
27052,YMER,medium_airport,"Merimbula Airport",-36.9085998535,149.901000977,7,OC,Australia,AU,"New South Wales",AU-NSW,NSW,Merimbula,1,YMER,YMER,MIM,,,https://en.wikipedia.org/wiki/Merimbula_Airport,,750,2010-09-02T14:26:09+00:00
4978,NSTU,medium_airport,"Pago Pago International Airport",-14.331,-170.710007,32,OC,"American Samoa",AS,"Western District",AS-WT,WT,"Pago Pago",1,NSTU,NSTU,PPG,PPG,,https://en.wikipedia.org/wiki/Pago_Pago_International_Airport,,750,2024-07-20T10:19:55+00:00
26924,YBPN,medium_airport,"Proserpine Whitsunday Coast Airport",-20.494416,148.553583,82,OC,Australia,AU,Queensland,AU-QLD,QLD,Proserpine,1,YBPN,YBPN,PPP,,,https://en.wikipedia.org/wiki/Proserpine_/_Whitsunday_Coast_Airport,,750,2022-01-21T20:23:39+00:00
5058,NZWB,medium_airport,"Woodbourne Airport",-41.5182991027832,173.8699951171875,109,OC,"New Zealand",NZ,"Marlborough Region",NZ-MBH,MBH,Blenheim,1,NZWB,NZWB,BHE,,,https://en.wikipedia.org/wiki/Woodbourne_Airport,,650,2008-07-18T11:49:40+00:00
27120,YPTN,medium_airport,"Tindal Airport",-14.521100044250488,132.3780059814453,443,OC,Australia,AU,"Northern Territory",AU-NT,NT,,0,YPTN,YPTN,KTR,,,https://en.wikipedia.org/wiki/RAAF_Base_Tindal,"RAAF Base Tindal",300,2008-06-26T14:52:34+00:00
5494,PMDY,medium_airport,"Henderson Field",28.2017,-177.380997,13,OC,"United States Minor Outlying Islands",UM,"Midway Atoll",UM-71,71,"Sand Island",0,PMDY,PMDY,MDY,MDY,,https://en.wikipedia.org/wiki/Henderson_Field_(Midway_Atoll),,275,2024-07-20T10:24:09+00:00
5031,NZGT,medium_airport,"Glentanner Airport",-43.906700134277344,170.1280059814453,1824,OC,"New Zealand",NZ,"Canterbury Region",NZ-CAN,CAN,"Glentanner Station",0,NZGT,NZGT,GTN,,,https://en.wikipedia.org/wiki/Glentanner_Aerodrome,"Lake Pukaki",250,2008-06-13T14:30:04+00:00
27169,YWGT,medium_airport,"Wangaratta Airport",-36.417914,146.306896,504,OC,Australia,AU,Victoria,AU-VIC,VIC,Laceby,0,YWGT,YWGT,WGT,,,https://en.wikipedia.org/wiki/Wangaratta_Airport,,250,2025-03-08T18:33:44+00:00
27041,YLTV,medium_airport,"Latrobe Valley Airport",-38.211004,146.470817,180,OC,Australia,AU,Victoria,AU-VIC,VIC,Morwell,0,YLTV,YLTV,TGN,,,https://en.wikipedia.org/wiki/Latrobe_Valley_Airport,"Traralgon, Morwell",250,2022-01-30T02:28:51+00:00
21732,PHLU,small_airport,"Kalaupapa Airport",21.211,-156.973999,24,OC,"United States",US,Hawaii,US-HI,HI,Kalaupapa,1,PHLU,PHLU,LUP,LUP,,https://en.wikipedia.org/wiki/Kalaupapa_Airport,,150,2022-03-08T16:04:20+00:00
26916,YBLT,small_airport,"Ballarat Airport",-37.51169967651367,143.79100036621094,1433,OC,Australia,AU,Victoria,AU-VIC,VIC,,0,YBLT,,,,,https://en.wikipedia.org/wiki/Ballarat_Airport,,50,2008-06-26T14:52:34+00:00
27068,YMND,small_airport,"Maitland Airport",-32.701265,151.492912,85,OC,Australia,AU,"New South Wales",AU-NSW,NSW,,0,YMND,YMND,MTL,,http://rnac.com.au,https://en.wikipedia.org/wiki/Maitland_Airport,,50,2024-02-22T14:21:05+00:00
27079,YMUL,small_airport,"Murray Field",-32.508301,115.842003,56,OC,Australia,AU,"Western Australia",AU-WA,WA,,0,YMUL,,,,,https://en.wikipedia.org/wiki/Murrayfield_Airport,,50,2024-05-29T06:23:42+00:00
27919,YRED,small_airport,"Redcliffe Airport",-27.205605,153.068712,2,OC,Australia,AU,Queensland,AU-QLD,QLD,Redcliffe,0,YRED,,,,,https://en.wikipedia.org/wiki/Redcliffe_Airport_(Australia),,50,2022-01-21T19:12:16+00:00
5032,NZHK,medium_airport,"Hokitika Airfield",-42.713600158691406,170.98500061035156,146,OC,"New Zealand",NZ,"West Coast Region",NZ-WTC,WTC,,1,NZHK,NZHK,HKK,,,https://en.wikipedia.org/wiki/Hokitika_Airport,,750,2008-07-18T08:17:54+00:00
26893,YARM,medium_airport,"Armidale Airport",-30.528099060099997,151.617004395,3556,OC,Australia,AU,"New South Wales",AU-NSW,NSW,Armidale,1,YARM,YARM,ARM,,,https://en.wikipedia.org/wiki/Armidale_Airport,,750,2010-09-02T08:41:26+00:00
27184,YWYY,medium_airport,"Wynyard Airport",-40.997039,145.726,62,OC,Australia,AU,Tasmania,AU-TAS,TAS,Burnie,1,YWYY,YWYY,BWT,,,https://en.wikipedia.org/wiki/Burnie_Airport,,750,2022-01-22T23:18:48+00:00
26946,YCBP,medium_airport,"Coober Pedy Airport",-29.038312,134.722166,740,OC,Australia,AU,"South Australia",AU-SA,SA,"Coober Pedy",1,YCBP,YCBP,CPD,,,https://en.wikipedia.org/wiki/Coober_Pedy_Airport,,750,2022-08-15T13:11:54+00:00
27035,YLIS,medium_airport,"Lismore Airport",-28.830689,153.258419,35,OC,Australia,AU,"New South Wales",AU-NSW,NSW,Lismore,1,YLIS,YLIS,LSY,,,https://en.wikipedia.org/wiki/Lismore_Airport,,750,2022-01-21T19:05:20+00:00
62,AYMD,medium_airport,"Madang Airport",-5.20707988739,145.789001465,20,OC,"Papua New Guinea",PG,"Madang Province",PG-MPM,MPM,Madang,1,AYMD,AYMD,MAG,,,https://en.wikipedia.org/wiki/Madang_Airport,,750,2011-07-03T17:56:55+00:00
5017,NWWM,medium_airport,"Nouméa Magenta Airport",-22.25812,166.472783,10,OC,"New Caledonia",NC,"Province Sud",NC-03,03,Nouméa,1,NWWM,NWWM,GEA,,,https://en.wikipedia.org/wiki/Noum%C3%A9a_Magenta_Airport,"l'Aéroport de Nouméa Magenta",750,2024-04-15T14:18:32+00:00
27109,YPKS,medium_airport,"Parkes Airport",-33.131401062,148.238998413,1069,OC,Australia,AU,"New South Wales",AU-NSW,NSW,Parkes,1,YPKS,YPKS,PKE,,,https://en.wikipedia.org/wiki/Parkes_Airport,,750,2010-09-02T14:36:32+00:00
27117,YPPD,medium_airport,"Port Hedland International Airport",-20.3777999878,118.625999451,33,OC,Australia,AU,"Western Australia",AU-WA,WA,"Port Hedland",1,YPPD,YPPD,PHE,,,https://en.wikipedia.org/wiki/Port_Hedland_International_Airport,,750,2010-08-29T23:18:37+00:00
5024,NZAP,medium_airport,"Taupo Airport",-38.73970031738281,176.08399963378906,1335,OC,"New Zealand",NZ,"Waikato Region",NZ-WKO,WKO,Taupo,1,NZAP,NZAP,TUO,,,https://en.wikipedia.org/wiki/Taupo_Airport,,750,2009-08-23T21:09:02+00:00
5009,NTTR,medium_airport,"Raiatea Airport",-16.7229,-151.466003,3,OC,"French Polynesia",PF,(unassigned),PF-U-A,U-A,Uturoa,1,NTTR,NTTR,RFP,,,https://en.wikipedia.org/wiki/Raiatea_Airport,,750,2021-10-12T15:59:49+00:00
71,AYWK,medium_airport,"Wewak International Airport",-3.58383011818,143.669006348,19,OC,"Papua New Guinea",PG,"East Sepik Province",PG-ESW,ESW,Wewak,1,AYWK,AYWK,WWK,,,https://en.wikipedia.org/wiki/Wewak_International_Airport,,750,2011-07-03T17:56:11+00:00
27144,YSRI,medium_airport,"RAAF Base Richmond",-33.604652,150.783051,67,OC,Australia,AU,"New South Wales",AU-NSW,NSW,Richmond,0,YSRI,YSRI,XRH,,,https://en.wikipedia.org/wiki/RAAF_Base_Richmond,military,300,2022-01-21T19:22:39+00:00
5050,NZPP,medium_airport,"Paraparaumu Airport",-40.904701232910156,174.98899841308594,22,OC,"New Zealand",NZ,"Wellington Region",NZ-WGN,WGN,,0,NZPP,NZPP,PPQ,,,https://en.wikipedia.org/wiki/Paraparaumu_Airport,,250,2008-06-13T14:30:04+00:00
5452,PHNG,medium_airport,"Kaneohe Bay MCAS (Marion E. Carl Field) Airport",21.4505,-157.768005,24,OC,"United States",US,Hawaii,US-HI,HI,Kaneohe,0,PHNG,PHNG,NGF,NGF,http://www.mcbhawaii.marines.mil/Units/SubordinateCommands/MarineCorpsAirStation.aspx,https://en.wikipedia.org/wiki/Marine_Corps_Air_Station_Kaneohe_Bay,,250,2022-03-08T16:07:28+00:00
5041,NZMS,medium_airport,"Hood Airport",-40.974634,175.63454,364,OC,"New Zealand",NZ,"Wellington Region",NZ-WGN,WGN,Masterton,0,NZMS,NZMS,MRO,,http://www.svas.org.nz/pages/hood_aerodrome_location.htm,https://en.wikipedia.org/wiki/Hood_Aerodrome,,250,2022-06-20T08:06:18+00:00
26915,YBLN,small_airport,"Busselton Margaret River Regional Airport",-33.688423,115.401596,55,OC,Australia,AU,"Western Australia",AU-WA,WA,Busselton,1,YBLN,YBLN,BQB,,https://www.busseltonmargaretriverairport.com.au/,https://en.wikipedia.org/wiki/Busselton_Regional_Airport,,100,2022-09-12T06:38:36+00:00
27057,YMGT,small_airport,"Margaret River Airport",-33.930599,115.099998,374,OC,Australia,AU,"Western Australia",AU-WA,WA,,0,YMGT,YMGT,MQZ,,,https://en.wikipedia.org/wiki/Margaret_River_Airport,,50,2024-05-18T12:08:24+00:00
27187,YYWG,small_airport,"Yarrawonga Airport",-36.028900146484375,146.0290069580078,423,OC,Australia,AU,Victoria,AU-VIC,VIC,,0,YYWG,,,,,https://en.wikipedia.org/wiki/Yarrawonga_Airport,,50,2008-06-26T14:52:34+00:00
27981,YTDN,small_airport,"Tooradin Airport",-38.215856,145.4232,3,OC,Australia,AU,Victoria,AU-VIC,VIC,,0,YTDN,,,,,,,50,2021-03-25T00:47:47+00:00
27417,YBSS,small_airport,"Bacchus Marsh Airport",-37.733333,144.421667,520,OC,Australia,AU,Victoria,AU-VIC,VIC,"Bacchus Marsh",0,YBSS,,,,,https://en.wikipedia.org/wiki/Bacchus_Marsh_Airfield,,50,2024-05-19T00:01:42+00:00
27448,YCDR,small_airport,"Caloundra Airport",-26.80336,153.104975,12,OC,Australia,AU,Queensland,AU-QLD,QLD,Caloundra,0,YCDR,YCDR,CUD,,,https://en.wikipedia.org/wiki/Caloundra_Airport,,50,2024-05-18T11:59:37+00:00
26945,YCBG,small_airport,"Cambridge Aerodrome",-42.827498,147.478337,67,OC,Australia,AU,Tasmania,AU-TAS,TAS,Cambridge,0,YCBG,,,,,https://en.wikipedia.org/wiki/Cambridge_Aerodrome,Hobart,50,2025-03-08T07:02:08+00:00
27113,YPLM,medium_airport,"Learmonth Airport",-22.235201,114.090024,19,OC,Australia,AU,"Western Australia",AU-WA,WA,Exmouth,1,YPLM,YPLM,LEA,,,https://en.wikipedia.org/wiki/RAAF_Learmonth,"RAAF Learmonth",750,2022-01-21T18:20:26+00:00
5030,NZGS,medium_airport,"Gisborne Airport",-38.6633,177.977997,15,OC,"New Zealand",NZ,"Gisborne Region",NZ-GIS,GIS,Gisborne,1,NZGS,NZGS,GIS,,https://gisborneairport.nz/,https://en.wikipedia.org/wiki/Gisborne_Airport,,750,2024-05-09T15:37:44+00:00
26994,YGLA,medium_airport,"Gladstone Airport",-23.869763,151.225439,64,OC,Australia,AU,Queensland,AU-QLD,QLD,Gladstone,1,YGLA,YGLA,GLT,4680,,https://en.wikipedia.org/wiki/Gladstone_Airport_(Australia),,750,2022-01-21T20:02:23+00:00
26999,YGTH,medium_airport,"Griffith Airport",-34.2508010864,146.067001343,439,OC,Australia,AU,"New South Wales",AU-NSW,NSW,Griffith,1,YGTH,YGTH,GFF,,,https://en.wikipedia.org/wiki/Griffith_Airport,,750,2010-09-02T09:06:54+00:00
27004,YHID,medium_airport,"Horn Island Airport",-10.585628,142.292653,43,OC,Australia,AU,Queensland,AU-QLD,QLD,Horn,1,YHID,YHID,HID,,,https://en.wikipedia.org/wiki/Horn_Island_Airport,,750,2022-11-27T14:54:02+00:00
5493,PLCH,medium_airport,"Cassidy International Airport",1.986278,-157.350011,5,OC,Kiribati,KI,"Line Islands",KI-L,L,Kiritimati,1,PLCH,PLCH,CXI,,,https://en.wikipedia.org/wiki/Cassidy_International_Airport,"Christmas Island, Banana",750,2022-10-27T19:21:58+00:00
63,AYMH,medium_airport,"Mount Hagen Kagamuga Airport",-5.828212,144.299412,5388,OC,"Papua New Guinea",PG,"Western Highlands Province",PG-WHM,WHM,"Mount Hagen",1,AYMH,AYMH,HGU,,,https://en.wikipedia.org/wiki/Mount_Hagen_Airport,,750,2022-08-06T01:24:37+00:00
27104,YPGV,medium_airport,"Gove Airport",-12.269399642899998,136.817993164,192,OC,Australia,AU,"Northern Territory",AU-NT,NT,Nhulunbuy,1,YPGV,YPGV,GOV,,,https://en.wikipedia.org/wiki/Gove_Airport,,750,2010-09-10T22:49:08+00:00
27099,YPBO,medium_airport,"Paraburdoo Airport",-23.1711006165,117.745002747,1406,OC,Australia,AU,"Western Australia",AU-WA,WA,Paraburdoo,1,YPBO,YPBO,PBO,,,https://en.wikipedia.org/wiki/Paraburdoo_Airport,,750,2010-09-19T19:47:36+00:00
27115,YPMQ,medium_airport,"Port Macquarie Airport",-31.4358005524,152.863006592,12,OC,Australia,AU,"New South Wales",AU-NSW,NSW,"Port Macquarie",1,YPMQ,YPMQ,PQQ,,http://www.hastings.nsw.gov.au/www/html/455-welcome-to-port-macquarie-airport.asp?intLocationID=455,https://en.wikipedia.org/wiki/Port_Macquarie_Airport,,750,2010-09-02T14:37:25+00:00
27128,YROM,medium_airport,"Roma Airport",-26.545000076300003,148.774993896,1032,OC,Australia,AU,Queensland,AU-QLD,QLD,Roma,1,YROM,YROM,RMA,,,https://en.wikipedia.org/wiki/Roma_Airport,,750,2010-09-19T19:48:50+00:00
5027,NZCI,medium_airport,"Chatham Islands / Tuuta Airport",-43.81189,-176.46514,43,OC,"New Zealand",NZ,"Wellington Region",NZ-WGN,WGN,"Te One",1,NZCI,NZCI,CHT,,,https://en.wikipedia.org/wiki/Chatham_Islands_/_Tuuta_Airport,Karewa,750,2021-10-14T17:26:57+00:00
5451,PHMU,medium_airport,"Waimea Kohala Airport",20.001301,-155.667999,2671,OC,"United States",US,Hawaii,US-HI,HI,"Waimea (Kamuela)",1,PHMU,PHMU,MUE,MUE,,https://en.wikipedia.org/wiki/Waimea-Kohala_Airport,,750,2022-03-08T16:06:50+00:00
26939,YBWP,medium_airport,"Weipa Airport",-12.677493,141.922618,63,OC,Australia,AU,Queensland,AU-QLD,QLD,Weipa,1,YBWP,YBWP,WEI,,,https://en.wikipedia.org/wiki/Weipa_Airport,,750,2022-11-27T15:22:32+00:00
5066,NZWR,medium_airport,"Whangarei Airport",-35.769253,174.363713,133,OC,"New Zealand",NZ,"Northland Region",NZ-NTL,NTL,Whangarei,1,NZWR,NZWR,WRE,,,https://en.wikipedia.org/wiki/Whangarei_Airport,,750,2022-09-19T13:30:35+00:00
27170,YWHA,medium_airport,"Whyalla Airport",-33.05889892578125,137.51400756835938,41,OC,Australia,AU,"South Australia",AU-SA,SA,Whyalla,1,YWHA,YWHA,WYA,,,https://en.wikipedia.org/wiki/Whyalla_Airport,,750,2008-06-26T14:52:34+00:00
5434,PGWT,medium_airport,"Tinian International Airport",14.998101,145.61923,271,OC,"Northern Mariana Islands",MP,(unassigned),MP-U-A,U-A,"Tinian Island",1,PGWT,PGWT,TIQ,TNI,,https://en.wikipedia.org/wiki/Tinian_International_Airport,,500,2024-04-05T15:15:04+00:00
26889,YAMB,medium_airport,"RAAF Base Amberley",-27.640976,152.713688,91,OC,Australia,AU,Queensland,AU-QLD,QLD,,0,YAMB,,,,,https://en.wikipedia.org/wiki/RAAF_Base_Amberley,,300,2023-03-12T16:49:08+00:00
26968,YCWR,medium_airport,"Cowra Airport",-33.846894,148.648007,966,OC,Australia,AU,"New South Wales",AU-NSW,NSW,,0,YCWR,YCWR,CWT,,https://www.cowracouncil.com.au/Facilities/Airport,https://en.wikipedia.org/wiki/Cowra_Airport,,250,2022-09-02T12:52:16+00:00
26995,YGLB,medium_airport,"Goulburn Airport",-34.810298919677734,149.7259979248047,2141,OC,Australia,AU,"New South Wales",AU-NSW,NSW,,0,YGLB,YGLB,GUL,,,https://en.wikipedia.org/wiki/Goulburn_Airport,,250,2008-06-26T14:52:34+00:00
5025,NZAR,medium_airport,"Ardmore Airport",-37.029701232910156,174.97300720214844,111,OC,"New Zealand",NZ,"Auckland Region",NZ-AUK,AUK,Manurewa,0,NZAR,NZAR,AMZ,,http://www.nzar.co.nz/,https://en.wikipedia.org/wiki/Ardmore_Airport,,250,2009-08-10T09:17:52+00:00
27153,YTEM,medium_airport,"Temora Airport",-34.421398,147.511993,921,OC,Australia,AU,"New South Wales",AU-NSW,NSW,Temora,0,YTEM,YTEM,TEM,,https://www.temora.nsw.gov.au/Council-Facilities/Airpark-and-Aerodrome,https://en.wikipedia.org/wiki/Temora_Airport,,250,2020-10-19T23:16:42+00:00
26898,YNPE,small_airport,"Northern Peninsula Airport",-10.946194,142.455081,34,OC,Australia,AU,Queensland,AU-QLD,QLD,Bamaga,1,YNPE,YNPE,ABM,,http://www.nparc.qld.gov.au/airport,https://en.wikipedia.org/wiki/Northern_Peninsula_Airport,"YBAM, Bamaga Airport, Bamaga Injinoo Airport, Somerset",150,2022-11-27T14:56:43+00:00
5443,PHHI,small_airport,"Wheeler Army Airfield",21.481637,-158.037048,837,OC,"United States",US,Hawaii,US-HI,HI,Wahiawa,0,PHHI,PHHI,HHI,HHI,,https://en.wikipedia.org/wiki/Wheeler_Army_Airfield,,150,2022-03-08T16:07:05+00:00
27018,YJAB,small_airport,"Jabiru Airport",-12.658056,132.894638,85,OC,Australia,AU,"Northern Territory",AU-NT,NT,,0,YJAB,YJAB,JAB,,,https://en.wikipedia.org/wiki/Jabiru_Airport,,50,2022-09-22T14:55:09+00:00
27723,YLIL,small_airport,"Lilydale Airport",-37.693,145.367,242,OC,Australia,AU,Victoria,AU-VIC,VIC,,0,YLIL,,,,https://www.yarravalleyaviation.com.au/,https://en.wikipedia.org/wiki/Lilydale_Airport,,50,2022-11-03T07:58:41+00:00
27946,YSEN,small_airport,"Serpentine Airport",-32.394966,115.870987,9,OC,Australia,AU,"Western Australia",AU-WA,WA,,0,YSEN,YSEN,,,http://www.sabc.org.au,https://en.wikipedia.org/wiki/Serpentine_Airfield,,50,2024-05-19T00:20:38+00:00
30192,NZNE,small_airport,"North Shore Aerodrome",-36.656700134277344,174.65499877929688,210,OC,"New Zealand",NZ,"Auckland Region",NZ-AUK,AUK,"Dairy Flat",0,NZNE,,,,,https://en.wikipedia.org/wiki/North_Shore_Aerodrome,"Dairy Flat Airfield",50,2009-08-10T07:52:47+00:00
27701,YKTN,small_airport,"Kyneton Airport",-37.2262620936,144.44729805,1650,OC,Australia,AU,Victoria,AU-VIC,VIC,Kyneton,0,YKTN,,,,,https://en.wikipedia.org/wiki/Kyneton_Airport,,50,2011-10-18T09:33:21+00:00
27031,YLEG,small_airport,"Leongatha Airport",-38.496472,145.860565,263,OC,Australia,AU,Victoria,AU-VIC,VIC,"Leongatha South",0,YLEG,,,,,https://en.wikipedia.org/wiki/Leongatha_Airport,,50,2025-03-08T09:36:28+00:00
5047,NZOU,medium_airport,"Oamaru Airport",-44.970001,171.082001,99,OC,"New Zealand",NZ,"Otago Region",NZ-OTA,OTA,,0,NZOU,NZOU,OAM,,,https://en.wikipedia.org/wiki/Oamaru_Aerodrome,,750,2025-02-04T22:41:41+00:00
5056,NZTU,medium_airport,"Timaru Airport",-44.302799224853516,171.22500610351562,89,OC,"New Zealand",NZ,"Canterbury Region",NZ-CAN,CAN,,1,NZTU,NZTU,TIU,,,https://en.wikipedia.org/wiki/Richard_Pearse_Airport,,750,2008-06-13T14:30:04+00:00
26950,YCDU,medium_airport,"Ceduna Airport",-32.13059997558594,133.7100067138672,77,OC,Australia,AU,"South Australia",AU-SA,SA,,1,YCDU,YCDU,CED,,,https://en.wikipedia.org/wiki/Ceduna_Airport,,750,2008-06-26T14:52:34+00:00
26955,YCKN,medium_airport,"Cooktown Airport",-15.443649,145.183221,26,OC,Australia,AU,Queensland,AU-QLD,QLD,,1,YCKN,YCKN,CTN,,,https://en.wikipedia.org/wiki/Cooktown_Airport,,750,2022-01-21T18:55:35+00:00
27023,YKII,medium_airport,"King Island Airport",-39.877498626708984,143.8780059814453,132,OC,Australia,AU,Tasmania,AU-TAS,TAS,,1,YKII,YKII,KNS,,,https://en.wikipedia.org/wiki/King_Island_Airport,,750,2008-06-26T14:52:34+00:00
27050,YMEK,medium_airport,"Meekatharra Airport",-26.6117000579834,118.5479965209961,1713,OC,Australia,AU,"Western Australia",AU-WA,WA,,1,YMEK,YMEK,MKR,,,https://en.wikipedia.org/wiki/Meekatharra_Airport,,750,2008-06-26T14:52:34+00:00
27180,YWTN,medium_airport,"Winton Airport",-22.36359977722168,143.08599853515625,638,OC,Australia,AU,Queensland,AU-QLD,QLD,,1,YWTN,YWTN,WIN,,,https://en.wikipedia.org/wiki/Winton_Airport,,750,2008-06-26T14:52:34+00:00
53,AYBK,medium_airport,"Buka Airport",-5.4223198890686035,154.67300415039062,11,OC,"Papua New Guinea",PG,"Autonomous Region of Bougainville",PG-NSB,NSB,"Buka Island",1,AYBK,AYBK,BUA,,,https://en.wikipedia.org/wiki/Buka_Airport,,750,2008-12-30T09:28:22+00:00
26941,YCAR,medium_airport,"Carnarvon Airport",-24.880091,113.670752,13,OC,Australia,AU,"Western Australia",AU-WA,WA,Carnarvon,1,YCAR,YCAR,CVQ,,,https://en.wikipedia.org/wiki/Carnarvon_Airport_(Western_Australia),,750,2025-03-17T00:59:06+00:00
26905,YBCV,medium_airport,"Charleville Airport",-26.4132995605,146.261993408,1003,OC,Australia,AU,Queensland,AU-QLD,QLD,Charleville,1,YBCV,YBCV,CTL,,,https://en.wikipedia.org/wiki/Charleville_Airport,,750,2010-09-19T19:39:40+00:00
26982,YESP,medium_airport,"Esperance Airport",-33.684399,121.822998,470,OC,Australia,AU,"Western Australia",AU-WA,WA,Esperance,1,YESP,YESP,EPR,,,https://en.wikipedia.org/wiki/Esperance_Airport,,750,2016-02-13T16:36:51+00:00
26998,YGTE,medium_airport,"Groote Eylandt Airport",-13.972405,136.458553,53,OC,Australia,AU,"Northern Territory",AU-NT,NT,"Groote Eylandt",1,YGTE,YGTE,GTE,,,https://en.wikipedia.org/wiki/Groote_Eylandt_Airport,,750,2022-06-06T16:14:07+00:00
57,AYGN,medium_airport,"Gurney Airport",-10.3114995956,150.333999634,88,OC,"Papua New Guinea",PG,"Milne Bay Province",PG-MBA,MBA,Gurney,1,AYGN,AYGN,GUR,,,https://en.wikipedia.org/wiki/Gurney_Airport,,750,2011-07-03T17:53:13+00:00
61,AYKV,medium_airport,"Kavieng Airport",-2.57940006256,150.807998657,7,OC,"Papua New Guinea",PG,"New Ireland Province",PG-NIK,NIK,Kavieng,1,AYKV,AYKV,KVG,,,https://en.wikipedia.org/wiki/Kavieng_Airport,,750,2011-07-03T17:55:24+00:00
5036,NZKK,medium_airport,"Kerikeri Airport",-35.259148,173.913317,492,OC,"New Zealand",NZ,"Northland Region",NZ-NTL,NTL,Kerikeri,1,NZKK,NZKK,KKE,,http://www.kerikeri-airport.co.nz/,https://en.wikipedia.org/wiki/Kerikeri_Airport,"Bay of Islands Airport",750,2022-09-19T12:45:34+00:00
68,AYTK,medium_airport,"Tokua Airport",-4.34046,152.380005,49,OC,"Papua New Guinea",PG,"East New Britain Province",PG-EBR,EBR,Kokopo,1,AYTK,AYTK,RAB,,,https://en.wikipedia.org/wiki/Rabaul_Airport,,750,2025-03-13T01:19:37+00:00
54,AYCH,medium_airport,"Chimbu Airport",-6.024290084838867,144.9709930419922,4974,OC,"Papua New Guinea",PG,"Chimbu Province",PG-CPK,CPK,Kundiawa,1,AYCH,AYCH,CMU,,,https://en.wikipedia.org/wiki/Chimbu_Airport,,750,2008-06-13T14:30:04+00:00
5010,NVSS,medium_airport,"Santo Pekoa International Airport",-15.505000114399998,167.220001221,184,OC,Vanuatu,VU,Sanma,VU-SAM,SAM,Luganville,1,NVSS,NVSS,SON,,http://www.airports.vu/Santo%20Pekoa/Santo%20Pekoa.htm,https://en.wikipedia.org/wiki/Santo-Pekoa_International_Airport,,750,2010-09-19T19:50:05+00:00
27072,YMOR,medium_airport,"Moree Airport",-29.498899459799997,149.845001221,701,OC,Australia,AU,"New South Wales",AU-NSW,NSW,Moree,1,YMOR,YMOR,MRZ,,,https://en.wikipedia.org/wiki/Moree_Airport,,750,2010-09-02T14:28:01+00:00
27075,YMRY,medium_airport,"Moruya Airport",-35.8978004456,150.143997192,14,OC,Australia,AU,"New South Wales",AU-NSW,NSW,Moruya,1,YMRY,YMRY,MYA,,,https://en.wikipedia.org/wiki/Moruya_Airport,"RAAF Moruya",750,2010-09-02T14:31:17+00:00
27088,YNTN,medium_airport,"Normanton Airport",-17.68409,141.069664,73,OC,Australia,AU,Queensland,AU-QLD,QLD,Normanton,1,YNTN,YNTN,NTN,,,https://en.wikipedia.org/wiki/Normanton_Airport,,750,2016-02-13T15:49:22+00:00
69,AYVN,medium_airport,"Vanimo Airport",-2.6926,141.3028,10,OC,"Papua New Guinea",PG,"Sandaun Province",PG-SAN,SAN,Vanimo,1,AYVN,AYVN,VAI,,,https://en.wikipedia.org/wiki/Vanimo_Airport,,750,2016-02-12T11:34:18+00:00
5068,NZWU,medium_airport,"Wanganui Airport",-39.96220016479492,175.02499389648438,27,OC,"New Zealand",NZ,"Manawatu-Wanganui Region",NZ-MWT,MWT,Wanganui,1,NZWU,NZWU,WAG,,,https://en.wikipedia.org/wiki/Wanganui_Airport,,750,2009-08-23T21:07:09+00:00
5046,NZOH,medium_airport,"RNZAF Base Ohakea",-40.20600128173828,175.38800048828125,164,OC,"New Zealand",NZ,"Manawatu-Wanganui Region",NZ-MWT,MWT,,0,NZOH,NZOH,OHA,,http://www.airforce.mil.nz/about/hqbases/boh.htm,https://en.wikipedia.org/wiki/RNZAF_Base_Ohakea,,575,2008-07-18T11:42:11+00:00
44571,NGFU,medium_airport,"Funafuti International Airport",-8.525,179.195999,9,OC,Tuvalu,TV,Funafuti,TV-FUN,FUN,Funafuti,1,NGFU,NGFU,FUN,,,https://en.wikipedia.org/wiki/Funafuti_International_Airport,,500,2016-05-31T10:29:42+00:00
27086,YNRM,medium_airport,"Narromine Airport",-32.214699,148.225006,782,OC,Australia,AU,"New South Wales",AU-NSW,NSW,,0,YNRM,,QRM,,,https://en.wikipedia.org/wiki/Narromine_Airport,,250,2024-05-18T12:11:23+00:00
27125,YREN,medium_airport,"Renmark Airport",-34.1964,140.673996,115,OC,Australia,AU,"South Australia",AU-SA,SA,,0,YREN,YREN,RMK,,,https://en.wikipedia.org/wiki/Renmark_Airport,,250,2024-05-18T12:14:20+00:00
26984,YFBS,medium_airport,"Forbes Airport",-33.363602,147.934998,760,OC,Australia,AU,"New South Wales",AU-NSW,NSW,Forbes,0,YFBS,YFBS,FRB,,,https://en.wikipedia.org/wiki/Forbes_Airport,,250,2016-10-05T13:25:02+00:00
4957,NCAI,small_airport,"Aitutaki Airport",-18.8309,-159.764008,14,OC,"Cook Islands",CK,(unassigned),CK-U-A,U-A,Aitutaki,1,NCAI,NCAI,AIT,,https://cookislandsairports.com/home/,https://en.wikipedia.org/wiki/Aitutaki_Airport,,150,2024-05-09T15:32:15+00:00
5458,PHUP,small_airport,"Upolu Airport",20.265301,-155.860001,96,OC,"United States",US,Hawaii,US-HI,HI,Hawi,0,PHUP,PHUP,UPP,UPP,,https://en.wikipedia.org/wiki/Upolu_Airport,,150,2022-03-08T16:08:01+00:00
27093,YOLD,small_airport,"Olympic Dam Airport",-30.483861,136.876699,344,OC,Australia,AU,"South Australia",AU-SA,SA,"Olympic Dam",1,YOLD,YOLD,OLP,,,https://en.wikipedia.org/wiki/Olympic_Dam_Airport,,150,2023-08-29T02:11:39+00:00
27163,YTWB,small_airport,"Toowoomba Airport",-27.543365,151.919112,2086,OC,Australia,AU,Queensland,AU-QLD,QLD,Toowoomba,0,YTWB,YTWB,TWB,,,https://en.wikipedia.org/wiki/Victoria_River_Downs_Airport,,150,2022-01-21T19:36:48+00:00
5456,PHSF,small_airport,"Bradshaw Army Airfield",19.760099,-155.554001,6190,OC,"United States",US,Hawaii,US-HI,HI,"Waimea (Kamuela)",0,PHSF,PHSF,BSF,BSF,,https://en.wikipedia.org/wiki/Pohakuloa_Training_Area,Pohakuloa,150,2024-03-21T22:49:28+00:00
26926,YBRL,small_airport,"Borroloola Airport",-16.0753,136.302002,55,OC,Australia,AU,"Northern Territory",AU-NT,NT,,0,YBRL,YBRL,BOX,,,https://en.wikipedia.org/wiki/Borroloola_Airport,,50,2024-05-18T11:57:45+00:00
27001,YGYM,small_airport,"Gympie Airport",-26.290149,152.702998,260,OC,Australia,AU,Queensland,AU-QLD,QLD,,0,YGYM,YGYM,GYP,,,https://en.wikipedia.org/wiki/Gympie_Airport,,50,2024-05-29T06:21:11+00:00
27134,YSCO,small_airport,"Scone Airport",-32.038012,150.831966,745,OC,Australia,AU,"New South Wales",AU-NSW,NSW,,0,YSCO,YSCO,NSO,,,https://en.wikipedia.org/wiki/Scone_Airport,,50,2023-03-13T12:01:59+00:00
27756,YMCO,small_airport,"Mallacoota Airport",-37.59830093383789,149.72000122070312,31,OC,Australia,AU,Victoria,AU-VIC,VIC,,0,YMCO,YMCO,XMC,,,https://en.wikipedia.org/wiki/Mallacoota_Airport,,50,2008-08-01T07:44:10+00:00
30465,NZTL,small_airport,"Tekapo Aerodrome",-44.005299,170.444,2496,OC,"New Zealand",NZ,"Canterbury Region",NZ-CAN,CAN,,0,NZTL,,,,http://www.airsafaris.co.nz/flights/Tekapo/,https://en.wikipedia.org/wiki/Lake_Tekapo_Airport,,50,2024-05-18T21:09:48+00:00
30214,NZOM,small_airport,"Omaka Blenheim Airport",-41.540001,173.921997,102,OC,"New Zealand",NZ,"Marlborough Region",NZ-MBH,MBH,Blenheim,0,NZOM,,,,,https://en.wikipedia.org/wiki/Omaka_Aerodrome,,50,2024-05-18T21:07:55+00:00
27865,YOLA,small_airport,"Colac Airport",-38.286701,143.679993,450,OC,Australia,AU,Victoria,AU-VIC,VIC,Colac,0,YOLA,YOLA,XCO,,,,,50,2019-12-30T17:57:09+00:00
5029,NZFI,small_airport,"Feilding Airport",-40.25579833984375,175.60499572753906,214,OC,"New Zealand",NZ,"Manawatu-Wanganui Region",NZ-MWT,MWT,Feilding,0,NZFI,,,,,https://en.wikipedia.org/wiki/Feilding_Aerodrome,,50,2008-06-13T14:30:04+00:00
17623,HI01,small_airport,"Princeville Airport",22.209313,-159.44515,344,OC,"United States",US,Hawaii,US-HI,HI,Hanalei,0,HI01,,HPV,HI01,,https://en.wikipedia.org/wiki/Princeville_Airport,,50,2022-03-08T16:08:24+00:00
27070,YMNG,small_airport,"Mangalore Airport",-36.888302,145.184006,467,OC,Australia,AU,Victoria,AU-VIC,VIC,Mangalore,0,YMNG,,,,,https://en.wikipedia.org/wiki/Mangalore_Airport_(Australia),,50,2025-03-08T18:22:35+00:00
27073,YMPC,small_airport,"RAAF Williams, Point Cook Base",-37.932201,144.753006,14,OC,Australia,AU,Victoria,AU-VIC,VIC,"Point Cook",0,YMPC,,,,,https://en.wikipedia.org/wiki/RAAF_Williams,,50,2017-03-06T19:23:48+00:00
30320,NZRT,small_airport,"Rangiora Airfield",-43.290001,172.542007,180,OC,"New Zealand",NZ,"Canterbury Region",NZ-CAN,CAN,Rangiora,0,NZRT,NZRT,,,http://www.rangiora.com/pages/rangiora-airport-and-airfield.php,https://en.wikipedia.org/wiki/Rangiora_Airport,,50,2024-05-18T21:08:50+00:00
28012,YTYA,small_airport,"Tyabb Airport",-38.266826,145.179406,88,OC,Australia,AU,Victoria,AU-VIC,VIC,Tyabb,0,YTYA,,,,http://www.pac.asn.au/,https://en.wikipedia.org/wiki/Tyabb_Airport,Westernport,50,2024-05-19T00:24:23+00:00
5004,NTTG,medium_airport,"Rangiroa Airport",-14.954299926757812,-147.66099548339844,10,OC,"French Polynesia",PF,(unassigned),PF-U-A,U-A,,1,NTTG,NTTG,RGI,,,https://en.wikipedia.org/wiki/Rangiroa_Airport,,750,2008-06-13T14:30:04+00:00
5012,NVVW,medium_airport,"Tanna Airport",-19.45509910583496,169.2239990234375,19,OC,Vanuatu,VU,Tafea,VU-TAE,TAE,,1,NVVW,NVVW,TAH,,,https://en.wikipedia.org/wiki/White_Grass_Airport,,750,2008-06-13T14:30:04+00:00
26912,YBKE,medium_airport,"Bourke Airport",-30.039199829101562,145.95199584960938,352,OC,Australia,AU,"New South Wales",AU-NSW,NSW,,1,YBKE,YBKE,BRK,,,https://en.wikipedia.org/wiki/Bourke_Airport,,750,2008-06-26T14:52:34+00:00
4974,NIUE,medium_airport,"Niue International Airport",-19.079030990600586,-169.92559814453125,209,OC,Niue,NU,(unassigned),NU-U-A,U-A,Alofi,1,NIUE,NIUE,IUE,,,https://en.wikipedia.org/wiki/Niue_International_Airport,"Hanan International Airport",750,2009-07-27T13:15:46+00:00
26910,YBIE,medium_airport,"Bedourie Airport",-24.3461,139.460007,300,OC,Australia,AU,Queensland,AU-QLD,QLD,Bedourie,1,YBIE,YBIE,BEU,,,https://en.wikipedia.org/wiki/Bedourie_Airport,,750,2025-03-12T13:41:35+00:00
26948,YCCY,medium_airport,"Cloncurry Airport",-20.668600082399998,140.503997803,616,OC,Australia,AU,Queensland,AU-QLD,QLD,Cloncurry,1,YCCY,YCCY,CNJ,,,https://en.wikipedia.org/wiki/Cloncurry_Airport,,750,2010-09-19T19:40:28+00:00
26962,YCOM,medium_airport,"Cooma Snowy Mountains Airport",-36.300445,148.972408,3088,OC,Australia,AU,"New South Wales",AU-NSW,NSW,Cooma,1,YCOM,YCOM,OOM,,,https://en.wikipedia.org/wiki/Cooma_-_Snowy_Mountains_Airport,,750,2022-01-30T23:48:18+00:00
27135,YSDU,medium_airport,"Dubbo City Regional Airport",-32.2167015076,148.574996948,935,OC,Australia,AU,"New South Wales",AU-NSW,NSW,Dubbo,1,YSDU,YSDU,DBO,,http://www.dubbo.nsw.gov.au/BusinessandIndustry/DubboCityRegionalAirport.html,https://en.wikipedia.org/wiki/Dubbo_Airport,,750,2010-09-02T08:48:25+00:00
26980,YELD,medium_airport,"Elcho Island Airport",-12.019399642899998,135.570999146,101,OC,Australia,AU,"Northern Territory",AU-NT,NT,"Elcho Island",1,YELD,YELD,ELC,,,https://en.wikipedia.org/wiki/Elcho_Island_Airport,,750,2010-09-10T22:47:59+00:00
60,AYKM,medium_airport,"Kerema Airport",-7.96361017227,145.770996094,10,OC,"Papua New Guinea",PG,"Gulf Province",PG-GPK,GPK,Kerema,1,AYKM,AYKM,KMA,,,https://en.wikipedia.org/wiki/Kerema_Airport,,750,2011-07-03T17:55:49+00:00
59,AYHK,medium_airport,"Hoskins Airport",-5.463846,150.407327,66,OC,"Papua New Guinea",PG,"West New Britain Province",PG-WBK,WBK,Kimbe,1,AYHK,AYHK,HKN,,,https://en.wikipedia.org/wiki/Hoskins_Airport,,750,2022-03-13T14:11:52+00:00
4961,NFNL,medium_airport,"Labasa Airport",-16.4667,179.339996,44,OC,Fiji,FJ,"Northern Division",FJ-N,N,Labasa,1,NFNL,NFNL,LBS,,,https://en.wikipedia.org/wiki/Lambasa_Airport,,750,2023-04-11T00:33:52+00:00
27034,YLHR,medium_airport,"Lockhart River Airport",-12.7869,143.304993,77,OC,Australia,AU,Queensland,AU-QLD,QLD,"Lockhart River",1,YLHR,YLHR,IRG,,,https://en.wikipedia.org/wiki/Lockhart_River_Airport,,750,2016-02-13T15:46:29+00:00
27038,YLRE,medium_airport,"Longreach Airport",-23.4342,144.279999,627,OC,Australia,AU,Queensland,AU-QLD,QLD,Longreach,1,YLRE,YLRE,LRE,,https://www.longreachairport.com.au/,https://en.wikipedia.org/wiki/Longreach_Airport,,750,2024-05-09T15:49:14+00:00
27055,YMGD,medium_airport,"Maningrida Airport",-12.0560998917,134.23399353,123,OC,Australia,AU,"Northern Territory",AU-NT,NT,Maningrida,1,YMGD,YMGD,MNG,,,https://en.wikipedia.org/wiki/Maningrida_Airport,,750,2010-09-11T09:42:40+00:00
65,AYMO,medium_airport,"Momote Airport",-2.06189,147.423996,12,OC,"Papua New Guinea",PG,"Manus Province",PG-MRL,MRL,"Manus Island",1,AYMO,AYMO,MAS,,,https://en.wikipedia.org/wiki/Momote_Airport,,750,2022-08-05T00:10:36+00:00
27082,YNBR,medium_airport,"Narrabri Airport",-30.3192005157,149.82699585,788,OC,Australia,AU,"New South Wales",AU-NSW,NSW,Narrabri,1,YNBR,YNBR,NAA,,http://narrabri.cfm.predelegation.com/index.cfm?page_id=1249,https://en.wikipedia.org/wiki/Narrabri_Airport,,750,2010-09-02T14:34:11+00:00
27112,YPLC,medium_airport,"Port Lincoln Airport",-34.6053009033,135.880004883,36,OC,Australia,AU,"South Australia",AU-SA,SA,"Port Lincoln",1,YPLC,YPLC,PLO,,,https://en.wikipedia.org/wiki/Port_Lincoln_Airport,,750,2010-09-19T19:48:12+00:00
5430,PGRO,medium_airport,"Rota International Airport",14.1743,145.242996,607,OC,"Northern Mariana Islands",MP,(unassigned),MP-U-A,U-A,"Rota Island",1,PGRO,PGRO,ROP,GRO,,https://en.wikipedia.org/wiki/Rota_International_Airport,,750,2020-12-18T10:41:44+00:00
27159,YTNK,medium_airport,"Tennant Creek Airport",-19.6343994140625,134.18299865722656,1236,OC,Australia,AU,"Northern Territory",AU-NT,NT,"Tennant Creek",1,YTNK,YTNK,TCA,,http://www.tennantcreekairport.com.au/,https://en.wikipedia.org/wiki/Tennant_Creek_Airport,,750,2008-08-01T10:51:53+00:00
4975,NLWW,medium_airport,"Hihifo Airport",-13.2383003235,-176.199005127,79,OC,"Wallis and Futuna",WF,(unassigned),WF-U-A,U-A,"Wallis Island",1,NLWW,NLWW,WLS,,,https://en.wikipedia.org/wiki/Hihifo_Airport,,750,2012-11-04T10:11:20+00:00
70,AYWD,medium_airport,"Wapenamanda Airport",-5.635293,143.892231,5889,OC,"Papua New Guinea",PG,"Enga Province",PG-EPW,EPW,Wapenamanda,1,AYWD,AYWD,WBM,,,https://en.wikipedia.org/wiki/Wapenamanda_Airport,,750,2022-08-06T01:25:20+00:00
27102,YPEA,medium_airport,"RAAF Base Pearce",-31.667800903320312,116.01499938964844,149,OC,Australia,AU,"Western Australia",AU-WA,WA,Bullsbrook,0,YPEA,,,,,https://en.wikipedia.org/wiki/RAAF_Base_Pearce,,500,2008-06-26T14:52:34+00:00
5039,NZMC,medium_airport,"Mount Cook Airport",-43.764999,170.132996,2153,OC,"New Zealand",NZ,"Canterbury Region",NZ-CAN,CAN,,0,NZMC,NZMC,MON,,,https://en.wikipedia.org/wiki/Mount_Cook_Aerodrome,,250,2024-05-18T11:45:17+00:00
26965,YCTM,medium_airport,"Cootamundra Airport",-34.624283,148.036641,1110,OC,Australia,AU,"New South Wales",AU-NSW,NSW,,0,YCTM,YCTM,CMD,,,https://en.wikipedia.org/wiki/Cootamundra_Airport,,250,2022-09-02T12:36:22+00:00
26985,YFRT,medium_airport,"Forrest Airport",-30.83662,128.112811,511,OC,Australia,AU,"Western Australia",AU-WA,WA,,0,YFRT,YFRT,FOS,,,https://en.wikipedia.org/wiki/Forrest_Airport,,250,2022-01-21T17:15:28+00:00
26989,YGDH,medium_airport,"Gunnedah Airport",-30.957511,150.248981,863,OC,Australia,AU,"New South Wales",AU-NSW,NSW,,0,YGDH,YGDH,GUH,,,https://en.wikipedia.org/wiki/Gunnedah_Airport,,250,2023-03-12T21:37:06+00:00
27025,YKMP,medium_airport,"Kempsey Airport",-31.07232,152.765313,54,OC,Australia,AU,"New South Wales",AU-NSW,NSW,,0,YKMP,YKMP,KPS,,,https://en.wikipedia.org/wiki/Kempsey_Airport,,250,2023-03-12T21:48:43+00:00
27030,YLEC,medium_airport,"Leigh Creek Airport",-30.598301,138.425995,856,OC,Australia,AU,"South Australia",AU-SA,SA,,0,YLEC,YLEC,LGH,,,https://en.wikipedia.org/wiki/Leigh_Creek_Airport,,250,2022-04-08T10:08:06+00:00
27105,YPIR,medium_airport,"Port Pirie Airport",-33.238899,137.994995,40,OC,Australia,AU,"South Australia",AU-SA,SA,,0,YPIR,YPIR,PPI,,,https://en.wikipedia.org/wiki/Port_Pirie_Airport,,250,2024-05-18T12:13:22+00:00
26921,YBNS,medium_airport,"Bairnsdale Airport",-37.887539,147.569379,165,OC,Australia,AU,Victoria,AU-VIC,VIC,Bairnsdale,0,YBNS,YBNS,BSJ,,https://www.eastgippsland.vic.gov.au/aerodromes/bairnsdale-airport,https://en.wikipedia.org/wiki/Bairnsdale_Airport,,250,2022-08-01T14:41:22+00:00
26914,YBLA,medium_airport,"Benalla Airport",-36.551899,146.007004,569,OC,Australia,AU,Victoria,AU-VIC,VIC,Benalla,0,YBLA,YBLA,BLN,,,https://en.wikipedia.org/wiki/Benalla_Airport,,250,2025-03-08T18:33:07+00:00
27179,YWSL,medium_airport,"West Sale Airport",-38.090827,146.965335,72,OC,Australia,AU,Victoria,AU-VIC,VIC,Sale,0,YWSL,YWSL,SXE,,,https://en.wikipedia.org/wiki/West_Sale_Airport,,250,2013-08-15T02:11:25+00:00
5057,NZUK,medium_airport,"Pukaki Airport",-44.2350006104,170.117996216,1575,OC,"New Zealand",NZ,"Canterbury Region",NZ-CAN,CAN,Twitzel,0,NZUK,NZUK,TWZ,,,https://en.wikipedia.org/wiki/Pukaki_Airport,,250,2015-08-12T09:04:11+00:00
28056,YWMC,medium_airport,"William Creek Aerodrome",-28.905854,136.3406,253,OC,Australia,AU,"South Australia",AU-SA,SA,"William Creek",0,YWMC,,,,https://www.wrightsair.com.au/,https://en.wikipedia.org/wiki/William_Creek_Airport,"WMC, William Creek",250,2023-08-29T01:24:24+00:00
35185,AYKI,small_airport,"Kiunga Airport",-6.1257100105285645,141.28199768066406,88,OC,"Papua New Guinea",PG,"Western Province",PG-WPD,WPD,Kiunga,1,AYKI,AYKI,UNG,,,https://en.wikipedia.org/wiki/Kiunga_Airport,,150,2008-12-30T09:28:46+00:00
27054,YMGB,small_airport,"Milingimbi Airport",-12.0944004059,134.893997192,53,OC,Australia,AU,"Northern Territory",AU-NT,NT,"Milingimbi Island",1,YMGB,YMGB,MGT,,,https://en.wikipedia.org/wiki/Milingimbi_Airport,,150,2010-09-11T09:43:45+00:00
32397,NFNS,small_airport,"Savusavu Airport",-16.803394,179.340587,17,OC,Fiji,FJ,"Northern Division",FJ-N,N,Savusavu,1,NFNS,NFNS,SVU,,,https://en.wikipedia.org/wiki/Savusavu_Airport,,150,2021-10-14T21:26:07+00:00
28045,YWGN,small_airport,"Wagin Airport",-33.33330154418945,117.36699676513672,,OC,Australia,AU,"Western Australia",AU-WA,WA,,0,YWGN,,,,,,,50,2008-06-26T14:52:34+00:00
29936,NZHR,small_airport,"Hanmer Springs Airport",-42.55080032348633,172.82699584960938,1109,OC,"New Zealand",NZ,"Canterbury Region",NZ-CAN,CAN,,0,NZHR,,,,http://anzfc.inet.net.nz/hanmer.htm,,,50,2008-12-09T06:09:07+00:00
27338,YARK,small_airport,"Arkaroola Airport",-30.406700134277344,139.3459930419922,,OC,Australia,AU,"South Australia",AU-SA,SA,,0,YARK,,,,,,,50,2008-06-26T14:52:34+00:00
27871,YORB,small_airport,"Orbost Airport",-37.790000915527344,148.61000061035156,28,OC,Australia,AU,Victoria,AU-VIC,VIC,,0,YORB,YORB,RBS,,,https://en.wikipedia.org/wiki/Orbost_Airport,,50,2008-08-01T07:47:20+00:00
26953,YCHT,small_airport,"Charters Towers Airport",-20.0431,146.272995,955,OC,Australia,AU,Queensland,AU-QLD,QLD,,0,YCHT,YCHT,CXT,,,https://en.wikipedia.org/wiki/Charters_Towers_Airport,,50,2024-05-18T12:00:50+00:00
27009,AU-0664,closed,"Hoxton Park Airport",-33.909698486328,150.85200500488,135,OC,Australia,AU,"New South Wales",AU-NSW,NSW,,0,,,,,,https://en.wikipedia.org/wiki/Hoxton_Park_Airport,"YHOX, YHOX",50,2025-02-25T14:48:45+00:00
27042,YLZI,small_airport,"Lizard Island Airport",-14.673273,145.454571,70,OC,Australia,AU,Queensland,AU-QLD,QLD,,0,YLZI,YLZI,LZR,,,https://en.wikipedia.org/wiki/Lizard_Island_Airport,,50,2015-01-23T13:29:08+00:00
27164,YWBL,small_airport,"Warrnambool Airport",-38.2952995300293,142.44700622558594,242,OC,Australia,AU,Victoria,AU-VIC,VIC,,0,YWBL,YWBL,WMB,,,https://en.wikipedia.org/wiki/Warrnambool_Airport,,50,2008-06-26T14:52:34+00:00
27173,YWKI,small_airport,"Waikerie Airport",-34.179573,140.033026,138,OC,Australia,AU,"South Australia",AU-SA,SA,,0,YWKI,,,,,https://en.wikipedia.org/wiki/Waikerie_Airport,,50,2024-05-19T00:25:47+00:00
27316,YADG,small_airport,"Aldinga Airport",-35.288753,138.49421,110,OC,Australia,AU,"South Australia",AU-SA,SA,Aldinga,0,YADG,,,,https://www.aldingaaviation.com.au/,https://en.wikipedia.org/wiki/Aldinga_Airfield,,50,2024-05-18T23:58:19+00:00
27434,YCAB,small_airport,"Caboolture Airport",-27.076027,152.987376,12,OC,Australia,AU,Queensland,AU-QLD,QLD,Caboolture,0,YCAB,,,,https://cabooltureaeroclub.com.au/,https://en.wikipedia.org/wiki/Caboolture_Airfield,,50,2024-05-09T15:48:04+00:00
5061,NZ-0087,closed,"Wigram Airport",-43.5511016846,172.552993774,74,OC,"New Zealand",NZ,"Canterbury Region",NZ-CAN,CAN,Christchurch,0,,,,,,https://en.wikipedia.org/wiki/Wigram_Aerodrome,"NZWG, NZWG",50,2025-02-25T14:38:05+00:00
27484,YCRL,small_airport,"Crookwell Airport",-34.499961,149.461377,,OC,Australia,AU,"New South Wales",AU-NSW,NSW,Crookwell,0,YCRL,,,,,,,50,2022-12-15T15:30:12+00:00
32724,YIMT,small_airport,"Innamincka Township Airport",-27.74169921875,140.7449951171875,,OC,Australia,AU,"South Australia",AU-SA,SA,"Innamincka Township",0,YIMT,,,,,,,50,2008-06-13T14:30:04+00:00
27481,YCOY,small_airport,"Coral Bay Airport",-23.128851,113.780626,5,OC,Australia,AU,"Western Australia",AU-WA,WA,Lyndon,0,YCOY,,,,,,,50,2025-03-17T01:08:10+00:00
38446,YLUW,small_airport,"Leeuwin Estate Airport",-34.020973,115.064471,,OC,Australia,AU,"Western Australia",AU-WA,WA,"Margaret River",0,YLUW,,,,,,,50,2022-08-15T11:49:30+00:00
27753,YMBT,small_airport,"Mount Beauty Airport",-36.731576,147.168903,1100,OC,Australia,AU,Victoria,AU-VIC,VIC,"Mount Beauty",0,YMBT,,,,http://www.ymbt.org.au/,,"Victorian Aerial Fire Bases",50,2024-05-09T15:45:57+00:00
30358,NZRC,small_airport,"Ryan's Creek Aerodrome",-46.8997,168.100998,62,OC,"New Zealand",NZ,"Southland Region",NZ-STL,STL,Oban,0,NZRC,NZRC,SZS,,,https://en.wikipedia.org/wiki/Ryan%27s_Creek_Aerodrome,"stewart island,rakiura",50,2018-05-18T04:28:35+00:00
32109,YORC,small_airport,"Orchid Beach Airport",-24.959400177002,153.31500244141,71,OC,Australia,AU,Queensland,AU-QLD,QLD,"Orchid Beach",0,YORC,YORC,OKB,YORC,,,,50,2015-07-02T00:56:12+00:00
27379,YBHB,small_airport,"Bathurst Harbour Airport",-43.421336,146.162131,,OC,Australia,AU,Tasmania,AU-TAS,TAS,Southwest,0,YBHB,,,,,,Melaleuca,50,2022-03-04T22:04:03+00:00
28079,YWVA,small_airport,"Warnervale Airport",-33.240278,151.429722,25,OC,Australia,AU,"New South Wales",AU-NSW,NSW,Warnervale,0,YWVA,,,,http://www.ccac.com.au/,https://en.wikipedia.org/wiki/Warnervale_Airport,,50,2021-08-21T22:57:29+00:00
26943,YCBA,medium_airport,"Cobar Airport",-31.538299560546875,145.79400634765625,724,OC,Australia,AU,"New South Wales",AU-NSW,NSW,,1,YCBA,YCBA,CAZ,,,https://en.wikipedia.org/wiki/Cobar_Airport,,750,2008-06-26T14:52:34+00:00
27116,YPOD,medium_airport,"Portland Airport",-38.31809997558594,141.4709930419922,265,OC,Australia,AU,Victoria,AU-VIC,VIC,,1,YPOD,YPOD,PTJ,,,https://en.wikipedia.org/wiki/Portland_Airport_(Australia),,750,2008-06-26T14:52:34+00:00
5037,NZKT,medium_airport,"Kaitaia Airport",-35.069837,173.287053,270,OC,"New Zealand",NZ,"Northland Region",NZ-NTL,NTL,Awanui,1,NZKT,NZKT,KAT,,,https://en.wikipedia.org/wiki/Kaitaia_Airport,,750,2022-09-19T11:35:04+00:00
26961,YCOE,medium_airport,"Coen Airport",-13.761133,143.113311,532,OC,Australia,AU,Queensland,AU-QLD,QLD,Coen,1,YCOE,YCOE,CUQ,,,https://en.wikipedia.org/wiki/Coen_Airport,,750,2016-02-13T15:39:40+00:00
55,AYDU,medium_airport,"Daru Airport",-9.08676,143.207993,20,OC,"Papua New Guinea",PG,"Western Province",PG-WPD,WPD,Daru,1,AYDU,AYDU,DAU,,,https://en.wikipedia.org/wiki/Daru_Airport,,750,2022-11-27T14:49:44+00:00
5014,NWWE,medium_airport,"Île des Pins Airport",-22.588899612426758,167.45599365234375,315,OC,"New Caledonia",NC,"Province Sud",NC-03,03,"Île des Pins",1,NWWE,NWWE,ILP,,,https://en.wikipedia.org/wiki/%C3%8Ele_des_Pins_Airport,,750,2009-04-09T07:55:16+00:00
64,AYMN,medium_airport,"Mendi Airport",-6.14774,143.656998,5680,OC,"Papua New Guinea",PG,"Southern Highlands Province",PG-SHM,SHM,Mendi,1,AYMN,AYMN,MDU,,,https://en.wikipedia.org/wiki/Mendi_Airport,,750,2016-02-12T10:28:45+00:00
27090,YNWN,medium_airport,"Newman Airport",-23.417800903299998,119.803001404,1724,OC,Australia,AU,"Western Australia",AU-WA,WA,Newman,1,YNWN,YNWN,ZNE,,,https://en.wikipedia.org/wiki/Newman_Airport,,750,2010-09-06T15:52:03+00:00
5001,NTMD,medium_airport,"Nuku Hiva Airport",-8.7956,-140.229004,220,OC,"French Polynesia",PF,(unassigned),PF-U-A,U-A,"Nuku Hiva",1,NTMD,NTMD,NHV,,,https://en.wikipedia.org/wiki/Nuku_Hiva_Airport,,750,2021-10-14T16:57:57+00:00
58,AYGR,medium_airport,"Girua Airport",-8.80453968048,148.309005737,311,OC,"Papua New Guinea",PG,"Northern Province",PG-NPP,NPP,Popondetta,1,AYGR,AYGR,PNP,,,https://en.wikipedia.org/wiki/Girua_Airport,,750,2011-07-03T17:54:27+00:00
4964,NFTV,medium_airport,"Vava'u International Airport",-18.58530044555664,-173.96200561523438,236,OC,Tonga,TO,Vava'u,TO-05,05,"Vava'u Island",1,NFTV,NFTV,VAV,,,https://en.wikipedia.org/wiki/Vava'u_International_Airport,"Vavau, Lupepau'u",750,2008-12-30T14:11:18+00:00
5002,NTMN,medium_airport,"Hiva Oa-Atuona Airport",-9.76879024506,-139.011001587,1481,OC,"French Polynesia",PF,(unassigned),PF-U-A,U-A,"Hiva Oa Island",1,NTMN,NTMN,AUQ,,,https://en.wikipedia.org/wiki/Atuona_Airport,HIX,550,2014-11-13T19:14:41+00:00
26747,ID-0339,medium_airport,"Old Nabire Airport",-3.368586,135.496702,20,OC,Indonesia,ID,"Papua Tengah (Central Papua)",ID-PT,PT,Nabire,1,,,,,,,"NBX, WABI, Douw Aturure",550,2025-03-19T08:56:30+00:00
5065,NZWP,medium_airport,"RNZAF Base Auckland-Whenuapai",-36.78779983520508,174.6300048828125,100,OC,"New Zealand",NZ,"Auckland Region",NZ-AUK,AUK,,0,NZWP,,,,http://www.airforce.mil.nz/about-us/hq-and-bases/auckland.htm,https://en.wikipedia.org/wiki/RNZAF_Base_Auckland,,500,2008-07-18T11:41:31+00:00
27140,YSNB,medium_airport,"Snake Bay Airport",-11.417674,130.648481,173,OC,Australia,AU,"Northern Territory",AU-NT,NT,Milikapiti,1,YSNK,,SNB,,,https://en.wikipedia.org/wiki/Snake_Bay_Airport,"YSNB, Austin Strip, RAAF Melville Island",500,2022-06-06T15:15:06+00:00
27161,YTRE,medium_airport,"Taree Airport",-31.888599,152.514008,38,OC,Australia,AU,"New South Wales",AU-NSW,NSW,Taree,0,YTRE,YTRE,TRO,,,https://en.wikipedia.org/wiki/Taree_Airport,,500,2025-02-05T19:20:28+00:00
5067,NZWS,medium_airport,"Westport Airport",-41.737111,171.579033,13,OC,"New Zealand",NZ,"West Coast Region",NZ-WTC,WTC,Westport,1,NZWS,NZWS,WSZ,,,https://en.wikipedia.org/wiki/Westport_Airport_(New_Zealand),,500,2022-09-15T10:03:09+00:00
5040,NZMO,medium_airport,"Manapouri Airport",-45.5331,167.649994,687,OC,"New Zealand",NZ,"Southland Region",NZ-STL,STL,,0,NZMO,NZMO,TEU,,,https://en.wikipedia.org/wiki/Te_Anau_Airport,,250,2024-05-18T11:45:57+00:00
27002,YHAY,medium_airport,"Hay Airport",-34.531399,144.830002,305,OC,Australia,AU,"New South Wales",AU-NSW,NSW,,0,YHAY,YHAY,HXX,,,https://en.wikipedia.org/wiki/Hay_Airport,,250,2023-03-12T21:43:24+00:00
27007,YHML,medium_airport,"Hamilton Airport",-37.64889907836914,142.06500244140625,803,OC,Australia,AU,Victoria,AU-VIC,VIC,,0,YHML,YHML,HLT,,,https://en.wikipedia.org/wiki/Hamilton_Airport_(Australia),,250,2008-06-26T14:52:34+00:00
27011,YHSM,medium_airport,"Horsham Airport",-36.669700622558594,142.17300415039062,445,OC,Australia,AU,Victoria,AU-VIC,VIC,,0,YHSM,YHSM,HSM,,,https://en.wikipedia.org/wiki/Horsham_Airport,,250,2008-06-26T14:52:34+00:00
27083,YNGU,medium_airport,"Ngukurr Airport",-14.7228,134.746994,45,OC,Australia,AU,"Northern Territory",AU-NT,NT,,0,YNGU,YNGU,RPM,,,https://en.wikipedia.org/wiki/Ngukurr_Airport,,250,2024-05-18T12:10:46+00:00
27152,YTEF,medium_airport,"Telfer Airport",-21.715,122.228996,970,OC,Australia,AU,"Western Australia",AU-WA,WA,,0,YTEF,YTEF,TEF,,,https://en.wikipedia.org/wiki/Telfer_Airport,,250,2024-05-18T12:16:44+00:00
27155,YTIB,medium_airport,"Tibooburra Airport",-29.451099,142.057999,584,OC,Australia,AU,"New South Wales",AU-NSW,NSW,,0,YTIB,YTIB,TYB,,,https://en.wikipedia.org/wiki/Tibooburra_Airport,,250,2023-03-13T14:43:36+00:00
27103,YPED,medium_airport,"RAAF Base Edinburgh",-34.705705,138.615564,67,OC,Australia,AU,"South Australia",AU-SA,SA,Adelaide,0,YPED,,,,http://www.raaf.gov.au/organisation/info_on/bases/edinburgh/index.htm,https://en.wikipedia.org/wiki/RAAF_Base_Edinburgh,,250,2022-01-14T20:20:51+00:00
26972,YDLQ,medium_airport,"Deniliquin Airport",-35.5593986511,144.945999146,316,OC,Australia,AU,"New South Wales",AU-NSW,NSW,Deniliquin,0,YDLQ,YDLQ,DNQ,,http://www.deniliquin.nsw.gov.au/index.php?option=com_content&view=article&id=46786:deniliquin-airport&catid=350&Itemid=1540,https://en.wikipedia.org/wiki/Deniliquin_Airport,,250,2014-08-31T21:56:15+00:00
26954,YCIN,medium_airport,"RAAF Base Curtin",-17.580458,123.828449,300,OC,Australia,AU,"Western Australia",AU-WA,WA,Derby,0,YCIN,YCIN,DCN,,,https://en.wikipedia.org/wiki/RAAF_Curtin,,250,2022-11-28T16:44:11+00:00
27016,YIVL,medium_airport,"Inverell Airport",-29.888299942,151.143997192,2667,OC,Australia,AU,"New South Wales",AU-NSW,NSW,Inverell,0,YIVL,YIVL,IVR,,,https://en.wikipedia.org/wiki/Inverell_Airport,,250,2013-10-03T15:08:31+00:00
26913,YBKT,small_airport,"Burketown Airport",-17.748600006103516,139.53399658203125,21,OC,Australia,AU,Queensland,AU-QLD,QLD,,1,YBKT,YBKT,BUC,,,https://en.wikipedia.org/wiki/Burketown_Airport,,150,2008-06-26T14:52:34+00:00
26973,YDMG,small_airport,"Doomadgee Airport",-17.9403,138.822006,153,OC,Australia,AU,Queensland,AU-QLD,QLD,,1,YDMG,YDMG,DMD,,,https://en.wikipedia.org/wiki/Doomadgee_Airport,,150,2018-09-16T04:55:37+00:00
27012,YHUG,small_airport,"Hughenden Airport",-20.815000534057617,144.22500610351562,1043,OC,Australia,AU,Queensland,AU-QLD,QLD,,1,YHUG,YHUG,HGD,,,https://en.wikipedia.org/wiki/Hughenden_Airport,,150,2008-06-26T14:52:34+00:00
27020,YJLC,small_airport,"Julia Creek Airport",-20.66830062866211,141.72300720214844,404,OC,Australia,AU,Queensland,AU-QLD,QLD,,1,YJLC,YJLC,JCK,,,https://en.wikipedia.org/wiki/Julia_Creek_Airport,,150,2008-06-26T14:52:34+00:00
27690,YKMB,small_airport,"Karumba Airport",-17.45669937133789,140.8300018310547,5,OC,Australia,AU,Queensland,AU-QLD,QLD,,1,YKMB,YKMB,KRB,,,https://en.wikipedia.org/wiki/Karumba_Airport,,150,2008-06-26T14:52:34+00:00
26894,YAUR,small_airport,"Aurukun Airport",-13.354019,141.720028,31,OC,Australia,AU,Queensland,AU-QLD,QLD,Aurukun,1,YAUR,YAUR,AUU,,,https://en.wikipedia.org/wiki/Aurukun_Airport,,150,2022-11-27T15:41:15+00:00
35173,NSMA,small_airport,"Maota Airport",-13.7423,-172.257996,,OC,Samoa,WS,"Palauli District",WS-PA,PA,Maota,0,NSMA,NSMA,MXS,,,https://en.wikipedia.org/wiki/Maota_Airport,"Savaii Island",150,2025-02-26T04:40:03+00:00
27080,YMYB,small_airport,"Maryborough Airport",-25.513528,152.713603,38,OC,Australia,AU,Queensland,AU-QLD,QLD,Maryborough,0,YMYB,YMYB,MBH,,,https://en.wikipedia.org/wiki/Maryborough_Airport_(Queensland),,150,2024-04-10T21:35:50+00:00
32485,NFNM,small_airport,"Matei Airport",-16.690599,-179.876999,60,OC,Fiji,FJ,"Northern Division",FJ-N,N,Matei,1,NFNM,NFNM,TVU,,,https://en.wikipedia.org/wiki/Matei_Airport,Taveuni,150,2021-02-05T10:41:42+00:00
32233,NFNR,small_airport,"Rotuma Airport",-12.482500076293945,177.0709991455078,22,OC,Fiji,FJ,"Rotuma (dependency)",FJ-R,R,Rotuma,1,NFNR,NFNR,RTA,,,https://en.wikipedia.org/wiki/Rotuma_Island_Airport,Elsee,150,2008-12-19T20:10:16+00:00
315620,YCHK,small_airport,"Christmas Creek Airport",-22.3543,119.6426,1462,OC,Australia,AU,"Western Australia",AU-WA,WA,"Christmas Creek Mine",1,YCHK,YCHK,CKW,,,https://en.wikipedia.org/wiki/Graeme_Rowley_Aerodrome,"Graeme Rowley Aerodrome",100,2022-02-21T00:35:11+00:00
30267,NZPN,small_airport,"Picton Aerodrome",-41.346099853516,173.95599365234,161,OC,"New Zealand",NZ,"Marlborough Region",NZ-MBH,MBH,Koromiko,1,NZPN,NZPN,PCN,,,https://en.wikipedia.org/wiki/Picton_Aerodrome,,100,2015-10-07T01:05:12+00:00
27950,YSGR,small_airport,"South Grafton Airport",-29.70829963684082,152.92799377441406,6,OC,Australia,AU,"New South Wales",AU-NSW,NSW,,0,YSGR,,,,,,,50,2008-08-01T07:49:23+00:00
27962,YSPT,small_airport,"Southport Airport",-27.921848,153.371469,2,OC,Australia,AU,Queensland,AU-QLD,QLD,,0,YSPT,YSPT,SHQ,,,https://en.wikipedia.org/wiki/Southport_Airport,,50,2024-05-18T12:15:56+00:00
29877,NZFJ,small_airport,"Franz Josef Aerodrome",-43.36309814453125,170.13400268554688,240,OC,"New Zealand",NZ,"West Coast Region",NZ-WTC,WTC,,0,NZFJ,,WHO,,,,,50,2008-07-18T10:59:09+00:00
29917,NZGM,small_airport,"Greymouth Airport",-42.4617,171.190002,10,OC,"New Zealand",NZ,"West Coast Region",NZ-WTC,WTC,,0,NZGM,NZGM,GMN,,,https://en.wikipedia.org/wiki/Greymouth_Airport,,50,2024-05-18T11:43:37+00:00
30300,NZPH,small_airport,"Pudding Hill Aerodrome",-43.594200134277344,171.531005859375,1558,OC,"New Zealand",NZ,"Canterbury Region",NZ-CAN,CAN,,0,NZPH,,,,,,,50,2008-07-18T10:56:33+00:00
30557,NZWL,small_airport,"West Melton Aerodrome",-43.4767,172.397003,312,OC,"New Zealand",NZ,"Canterbury Region",NZ-CAN,CAN,,0,NZWL,,,,,https://en.wikipedia.org/wiki/West_Melton_Aerodrome,,50,2024-05-18T21:10:59+00:00
27715,YLED,small_airport,"Lethbridge Airpark",-37.921233,144.103058,790,OC,Australia,AU,Victoria,AU-VIC,VIC,,0,YLED,,,YLED,http://www.lethbridgeairport.com.au,https://en.wikipedia.org/wiki/Lethbridge_Airpark,,50,2024-05-29T06:23:11+00:00
27851,YNSH,small_airport,"Noosa Airport",-26.423177,153.064935,1,OC,Australia,AU,Queensland,AU-QLD,QLD,,0,YNSH,YNSH,NSV,,,,,50,2022-01-21T19:52:33+00:00
38410,YKHG,small_airport,"Katherine Gorge Airport",-14.385302,132.39315,,OC,Australia,AU,"Northern Territory",AU-NT,NT,,0,YKHG,,,,,,,50,2022-01-21T22:26:51+00:00
38660,YWRC,small_airport,"Wave Rock Airport",-32.426700592041016,118.90799713134766,,OC,Australia,AU,"Western Australia",AU-WA,WA,,0,YWRC,,,,http://www.waverock.com.au/airport.htm,https://en.wikipedia.org/wiki/Wave_Rock,,50,2008-10-14T10:37:44+00:00
316629,AU-0107,small_airport,Midway,-32.672544,115.789526,,OC,Australia,AU,"Western Australia",AU-WA,WA,,0,,,,,,,,50,2016-01-04T03:23:14+00:00
26949,YCDO,small_airport,"Condobolin Airport",-33.06565,147.21316,650,OC,Australia,AU,"New South Wales",AU-NSW,NSW,,0,YCDO,YCDO,CBX,,,https://en.wikipedia.org/wiki/Condobolin_Airport,,50,2022-09-02T11:48:20+00:00
26990,YGDI,small_airport,"Goondiwindi Airport",-28.5214,150.320007,714,OC,Australia,AU,Queensland,AU-QLD,QLD,,0,YGDI,YGDI,GOO,,,https://en.wikipedia.org/wiki/Goondiwindi_Airport,,50,2024-05-18T12:04:50+00:00
27021,YKBY,small_airport,"Streaky Bay Airport",-32.836621,134.292991,69,OC,Australia,AU,"South Australia",AU-SA,SA,,0,YKBY,YKBY,KBY,,,https://en.wikipedia.org/wiki/Streaky_Bay_Airport,,50,2022-09-22T09:56:08+00:00
27046,YMBU,small_airport,"Maryborough Airport",-37.03310012817383,143.70899963378906,766,OC,Australia,AU,Victoria,AU-VIC,VIC,,0,YMBU,,,,,https://en.wikipedia.org/wiki/Maryborough_Airport_(Victoria),,50,2008-06-26T14:52:34+00:00
27091,YNYN,small_airport,"Nyngan Airport",-31.550645,147.202973,569,OC,Australia,AU,"New South Wales",AU-NSW,NSW,,0,YNYN,YNYN,NYN,,,https://en.wikipedia.org/wiki/Nyngan_Airport,,50,2023-03-13T01:53:05+00:00
27160,YTOC,small_airport,"Tocumwal Airport",-35.81169891357422,145.60800170898438,372,OC,Australia,AU,"New South Wales",AU-NSW,NSW,,0,YTOC,YTOC,TCW,,,https://en.wikipedia.org/wiki/RAAF_Station_Tocumwal,"RAAF Station Tocumwal",50,2008-06-26T14:52:34+00:00
29672,NZAS,small_airport,"Ashburton Airport",-43.903301,171.796997,302,OC,"New Zealand",NZ,"Canterbury Region",NZ-CAN,CAN,Ashburton,0,NZAS,NZAS,ASG,,https://www.ashburtondc.govt.nz/community-facilities/ashburton-airport,https://en.wikipedia.org/wiki/Ashburton_Aerodrome,,50,2025-03-18T15:11:28+00:00
27346,YAUG,small_airport,"Tallinup-Augusta Airport",-34.328604,115.157029,103,OC,Australia,AU,"Western Australia",AU-WA,WA,Augusta,0,YAUG,,,,,,,50,2020-03-03T01:22:09+00:00
5034,NZHS,small_airport,"Hastings Aerodrome",-39.646702,176.766998,72,OC,"New Zealand",NZ,"Hawke's Bay Region",NZ-HKB,HKB,"Bridge Pa",0,NZHS,,,,http://www.hbecac.co.nz/,https://en.wikipedia.org/wiki/Hastings_Aerodrome,,50,2016-09-19T03:48:06+00:00
27451,YCEM,small_airport,"Coldstream Airport",-37.727669,145.408371,76,OC,Australia,AU,Victoria,AU-VIC,VIC,Coldstream,0,YCEM,,,,,https://en.wikipedia.org/wiki/Coldstream_Airport,,50,2024-05-19T00:03:14+00:00
27478,YCOI,small_airport,"Collie Airport",-33.3666992188,116.217002869,818,OC,Australia,AU,"Western Australia",AU-WA,WA,Collie,0,YCOI,YCOI,CIE,,,,,50,2014-07-20T13:00:42+00:00
27413,YBRS,small_airport,"Barwon Heads Airport",-38.256145,144.427895,50,OC,Australia,AU,Victoria,AU-VIC,VIC,Connewarre,0,YBRS,,,,https://barwonheadsairport.com.au/,https://en.wikipedia.org/wiki/Barwon_Heads_Airport,,50,2024-03-09T13:26:18+00:00
27464,YCLQ,small_airport,"Cape Leveque Airport",-16.401203,122.932148,,OC,Australia,AU,"Western Australia",AU-WA,WA,"Dampier Peninsula",0,YCLQ,,,,,,"Kooljaman, Kooljamin",50,2022-11-28T16:53:30+00:00
38201,AU-0002,small_airport,"Dwellingup Airstrip",-32.6926994324,116.074996948,,OC,Australia,AU,"Western Australia",AU-WA,WA,Dwellingup,0,,,,A01,,,http://sabc.org.au/knav/airport/A01.html,50,2011-07-18T13:40:25+00:00
27610,YGWA,small_airport,"Goolwa Airport",-35.480085,138.744267,32,OC,Australia,AU,"South Australia",AU-SA,SA,Goolwa,0,YGWA,,,,,https://en.wikipedia.org/wiki/Goolwa_Airport,,50,2021-03-08T09:34:05+00:00
309612,YSMB,small_airport,"Somersby Airstrip",-33.367681,151.299806,860,OC,Australia,AU,"New South Wales",AU-NSW,NSW,Gosford,0,YSMB,YSMB,GOS,YSMB,,https://en.wikipedia.org/wiki/Somersby_Airfield,,50,2022-07-11T19:59:12+00:00
27614,YHAW,small_airport,"Wilpena Pound Airport",-31.855907,138.468079,321,OC,Australia,AU,"South Australia",AU-SA,SA,Hawker,0,YHAW,YHAW,HWK,,,https://en.wikipedia.org/wiki/Hawker_Airport,,50,2024-06-07T10:32:29+00:00
42727,NZ-0013,small_airport,Culverden,-42.76765060424805,172.8919677734375,597,OC,"New Zealand",NZ,"Canterbury Region",NZ-CAN,CAN,"Hurunui District Council",0,,,,,http://anzfc.inet.net.nz/culverden.htm,,,50,2008-12-09T19:41:19+00:00
27664,YKAL,small_airport,"Kalumburu Airport",-14.28784,126.633182,29,OC,Australia,AU,"Western Australia",AU-WA,WA,Kalumburu,0,YKAL,YKAL,UBU,,,,,50,2022-11-28T16:18:03+00:00
313838,AU-0081,small_airport,"Lady Elliot Island Airstrip",-24.1129,152.7156,20,OC,Australia,AU,Queensland,AU-QLD,QLD,"Lady Elliot Island",0,YLTT,,LYT,,,,,50,2024-07-15T19:50:06+00:00
27712,YLCS,small_airport,"Locksley Field",-36.814999,145.348007,165,OC,Australia,AU,Victoria,AU-VIC,VIC,Locksley,0,YLCS,,,,,,,50,2025-03-08T18:23:16+00:00
27765,YMEL,small_airport,"Melton Airport",-37.621793,144.565053,204,OC,Australia,AU,Victoria,AU-VIC,VIC,Melton,0,YMEL,,,,http://www.meltonairservices.com.au/index.php?sec=home,https://en.wikipedia.org/wiki/Melton_Airfield,"Foggarty's Field, ",50,2024-05-19T00:14:58+00:00
27635,YILA,small_airport,"Milawa (Brown Brothers) Airport",-36.456197,146.433063,525,OC,Australia,AU,Victoria,AU-VIC,VIC,Milawa,0,YILA,,,,,,"Brown Brothers Winery, Milawa Vineyard",50,2025-03-08T18:38:24+00:00
27849,YNRG,small_airport,"Narrogin Airport",-32.93,117.080002,1080,OC,Australia,AU,"Western Australia",AU-WA,WA,Narrogin,0,YNRG,YNRG,NRG,,http://www.narroginshire.wa.gov.au/airport.aspx,,,50,2022-03-13T11:20:43+00:00
30250,NZUN,small_airport,"Pauanui Aerodrome",-37.021068,175.863626,20,OC,"New Zealand",NZ,"Waikato Region",NZ-WKO,WKO,Pauanui,0,NZUN,,,,,https://en.wikipedia.org/wiki/Pauanui_Aerodrome,,50,2024-05-18T21:10:22+00:00
5489,PKRO,small_airport,"Dyess Army Air Field",9.39689,167.470993,9,OC,"Marshall Islands",MH,Kwajalein,MH-KWA,KWA,Roi-Namur,0,PKRO,,,ROI,,https://en.wikipedia.org/wiki/Dyess_Army_Airfield,FreeFlight,50,2022-12-12T12:59:18+00:00
27953,YSHR,small_airport,"Shute Harbour/Whitsunday Airport",-20.276127,148.754979,40,OC,Australia,AU,Queensland,AU-QLD,QLD,"Shute Harbour",0,YSHR,YSHR,WSY,,https://www.whitsundayairport.com.au/,https://en.wikipedia.org/wiki/Whitsunday_Airport,,50,2022-06-08T11:26:04+00:00
30484,YOAS,small_airport,"The Oaks Airport",-34.084097,150.559602,909,OC,Australia,AU,"New South Wales",AU-NSW,NSW,"The Oaks",0,YOAS,,,,https://www.srfc.org.au/,https://en.wikipedia.org/wiki/The_Oaks_Airfield,,50,2023-03-19T11:29:34+00:00
301840,BAJ,small_airport,"Bali Airport",-4.8833333333299995,149.133333333,90,OC,"Papua New Guinea",PG,"West New Britain Province",PG-WBK,WBK,"Unea Island",0,,,BAJ,BALI,,,,50,2012-06-26T00:52:52+00:00
27165,YWBR,small_airport,"Warburton Airport",-26.125538,126.583158,1500,OC,Australia,AU,"Western Australia",AU-WA,WA,Warburton,0,YWBR,,,,,https://en.wikipedia.org/wiki/Warburton_Airport,,50,2022-10-27T10:47:51+00:00
28053,YWKM,small_airport,"Wyalkatchem Airport",-31.2026341022,117.378873825,,OC,Australia,AU,"Western Australia",AU-WA,WA,Wyalkatchem,0,YWKM,,,,,,,50,2011-07-26T10:42:58+00:00
4985,NTGC,medium_airport,"Tikehau Airport",-15.119600296020508,-148.2310028076172,6,OC,"French Polynesia",PF,(unassigned),PF-U-A,U-A,,1,NTGC,NTGC,TIH,,,https://en.wikipedia.org/wiki/Tikehau_Airport,,750,2008-06-13T14:30:04+00:00
4989,NTGJ,medium_airport,"Totegegie Airport",-23.07990074157715,-134.88999938964844,7,OC,"French Polynesia",PF,(unassigned),PF-U-A,U-A,,1,NTGJ,NTGJ,GMR,,,https://en.wikipedia.org/wiki/Totegegie_Airport,,750,2008-06-13T14:30:04+00:00
4995,NTGV,medium_airport,"Mataiva Airport",-14.8681001663208,-148.7169952392578,11,OC,"French Polynesia",PF,(unassigned),PF-U-A,U-A,,1,NTGV,NTGV,MVT,,,https://en.wikipedia.org/wiki/Mataiva_Airport,,750,2008-06-13T14:30:04+00:00
5062,NZWK,medium_airport,"Whakatane Airport",-37.92060089111328,176.91400146484375,20,OC,"New Zealand",NZ,"Bay of Plenty Region",NZ-BOP,BOP,,1,NZWK,NZWK,WHK,,,https://en.wikipedia.org/wiki/Whakatane_Airport,,750,2008-06-13T14:30:04+00:00
26922,YBOK,medium_airport,"Oakey Army Aviation Centre",-27.409262,151.736727,1335,OC,Australia,AU,Queensland,AU-QLD,QLD,,1,YBOK,YBOK,OKY,,,https://en.wikipedia.org/wiki/Oakey_Army_Aviation_Centre,"Swartz Barracks",750,2021-12-27T21:11:18+00:00
26923,YBOU,medium_airport,"Boulia Airport",-22.913299560546875,139.89999389648438,542,OC,Australia,AU,Queensland,AU-QLD,QLD,,1,YBOU,YBOU,BQL,,,https://en.wikipedia.org/wiki/Boulia_Airport,,750,2008-06-26T14:52:34+00:00
26959,YCNM,medium_airport,"Coonamble Airport",-30.980946,148.377833,604,OC,Australia,AU,"New South Wales",AU-NSW,NSW,,1,YCNM,YCNM,CNB,,,https://en.wikipedia.org/wiki/Coonamble_Airport,,750,2022-01-30T21:56:20+00:00
27071,YMOG,medium_airport,"Mount Magnet Airport",-28.116100311279297,117.84200286865234,1354,OC,Australia,AU,"Western Australia",AU-WA,WA,,1,YMOG,YMOG,MMG,,,https://en.wikipedia.org/wiki/Mount_Magnet_Airport,,750,2008-06-26T14:52:34+00:00
26899,YBAR,medium_airport,"Barcaldine Airport",-23.566268,145.302086,878,OC,Australia,AU,Queensland,AU-QLD,QLD,Barcaldine,1,YBAR,YBAR,BCI,,,https://en.wikipedia.org/wiki/Barcaldine_Airport,,750,2022-02-09T14:49:09+00:00
26903,YBCK,medium_airport,"Blackall Airport",-24.431678,145.429716,928,OC,Australia,AU,Queensland,AU-QLD,QLD,Blackall,1,YBCK,YBCK,BKQ,,,https://en.wikipedia.org/wiki/Blackall_Airport,,750,2021-12-14T01:50:09+00:00
27137,YSHK,medium_airport,"Shark Bay Airport",-25.897294,113.575802,111,OC,Australia,AU,"Western Australia",AU-WA,WA,Denham,1,YSHK,YSHK,MJK,,,https://en.wikipedia.org/wiki/Shark_Bay_Airport,"Monkey Mia Airport",750,2022-09-08T15:17:26+00:00
5013,NWWD,medium_airport,"Koné Airport",-21.053551,164.838768,23,OC,"New Caledonia",NC,"Province Nord",NC-02,02,Koné,1,NWWD,NWWD,KNQ,,,https://en.wikipedia.org/wiki/Kon%C3%A9_Airport,,750,2025-02-24T23:13:26+00:00
27026,YKOW,medium_airport,"Kowanyama Airport",-15.485369,141.752572,35,OC,Australia,AU,Queensland,AU-QLD,QLD,Kowanyama,1,YKOW,YKOW,KWM,,,https://en.wikipedia.org/wiki/Kowanyama_Airport,,750,2022-11-27T16:52:58+00:00
27032,YLEO,medium_airport,"Leonora Airport",-28.87809944152832,121.31500244140625,1217,OC,Australia,AU,"Western Australia",AU-WA,WA,Leonora,1,YLEO,YLEO,LNO,,http://www.leonora.wa.gov.au/services_facilities/airport.html,https://en.wikipedia.org/wiki/Leonora_Airport,,750,2008-06-27T08:41:27+00:00
5016,NWWL,medium_airport,"Lifou Airport",-20.774563,167.239328,92,OC,"New Caledonia",NC,"Province des îles Loyauté",NC-01,01,Lifou,1,NWWL,NWWL,LIF,,,https://en.wikipedia.org/wiki/Lifou_Airport,,750,2025-02-02T08:48:05+00:00
27008,YHOT,medium_airport,"Mount Hotham Airport",-37.0475006104,147.333999634,4260,OC,Australia,AU,Victoria,AU-VIC,VIC,"Mount Hotham",1,YHOT,YHOT,MHU,,,https://en.wikipedia.org/wiki/Mount_Hotham_Airport,,750,2010-09-02T14:32:44+00:00
4,AGGM,medium_airport,"Munda Airport",-8.32797,157.263,10,OC,"Solomon Islands",SB,"Western Province",SB-WE,WE,Munda,1,AGGM,AGGM,MUA,,,https://en.wikipedia.org/wiki/Munda_Airport,,750,2021-04-09T14:58:10+00:00
27168,YWDH,medium_airport,"Windorah Airport",-25.410641,142.668428,452,OC,Australia,AU,Queensland,AU-QLD,QLD,Windorah,1,YWDH,YWDH,WNR,,,https://en.wikipedia.org/wiki/Windorah_Airport,,750,2025-03-18T01:54:46+00:00
27053,YMES,medium_airport,"RAAF Base East Sale",-38.0989,147.149002,23,OC,Australia,AU,Victoria,AU-VIC,VIC,,0,YMES,,,,http://www.defence.gov.au/raaf/bases/eastsale/index.htm,https://en.wikipedia.org/wiki/RAAF_Base_East_Sale,,325,2024-01-18T18:07:38+00:00
26964,YCRG,medium_airport,"Corryong Airport",-36.18280029296875,147.88800048828125,963,OC,Australia,AU,Victoria,AU-VIC,VIC,,0,YCRG,YCRG,CYG,,,https://en.wikipedia.org/wiki/Corryong_Airport,,250,2008-06-26T14:52:34+00:00
27010,YHPN,medium_airport,"Hopetoun Airport",-35.715302,142.360001,256,OC,Australia,AU,Victoria,AU-VIC,VIC,,0,YHPN,YHPN,HTU,,,https://en.wikipedia.org/wiki/Hopetoun_Airport,,250,2024-05-18T12:06:22+00:00
27027,YKRY,medium_airport,"Kingaroy Airport",-26.581077,151.839927,1492,OC,Australia,AU,Queensland,AU-QLD,QLD,,0,YKRY,YKRY,KGY,,,https://en.wikipedia.org/wiki/Kingaroy_Airport,,250,2024-05-18T12:07:43+00:00
27150,YSWL,medium_airport,"Stawell Airport",-37.07170104980469,142.74099731445312,807,OC,Australia,AU,Victoria,AU-VIC,VIC,,0,YSWL,YSWL,SWC,,,https://en.wikipedia.org/wiki/Stawell_Airport,,250,2008-06-26T14:52:34+00:00
26891,YARA,medium_airport,"Ararat Airport",-37.309978,142.988688,1008,OC,Australia,AU,Victoria,AU-VIC,VIC,Ararat,0,YARA,YARA,ARY,,,https://en.wikipedia.org/wiki/Ararat_Airport,,250,2021-03-17T17:40:06+00:00
26971,YDBY,medium_airport,"Derby Airport",-17.37193,123.66221,24,OC,Australia,AU,"Western Australia",AU-WA,WA,Derby,0,YDBY,YDBY,DRB,,,https://en.wikipedia.org/wiki/Derby_Airport_(Australia),,250,2022-04-08T02:14:38+00:00
26996,YGLI,medium_airport,"Glen Innes Airport",-29.676029,151.691156,3433,OC,Australia,AU,"New South Wales",AU-NSW,NSW,"Glen Innes",0,YGLI,YGLI,GLI,,,https://en.wikipedia.org/wiki/Glen_Innes_Airport,,250,2022-09-02T14:18:43+00:00
26992,YGFN,medium_airport,"Clarence Valley Regional Airport",-29.754795,153.031234,110,OC,Australia,AU,"New South Wales",AU-NSW,NSW,Grafton,0,YGFN,YGFN,GFN,,https://www.clarence.nsw.gov.au/Business-and-infrastructure/Clarence-Valleys-Infrastructure/Clarence-Valley-Regional-Airport,https://en.wikipedia.org/wiki/Clarence_Valley_Regional_Airport,,250,2023-08-24T21:00:36+00:00
27045,YMBA,medium_airport,"Mareeba Airport",-17.070277,145.424228,1560,OC,Australia,AU,Queensland,AU-QLD,QLD,Mareeba,0,YMBA,YMBA,MRG,,https://msc.qld.gov.au/region/mareeba-airport-aviation-industrial-park/,https://en.wikipedia.org/wiki/Mareeba_Airfield,,250,2023-08-25T11:15:10+00:00
27142,YSNW,medium_airport,"Naval Air Station Nowra - HMAS Albatross",-34.9466,150.542451,400,OC,Australia,AU,"New South Wales",AU-NSW,NSW,"Nowra Hill",0,YSNW,YSNW,NOA,,https://www.navy.gov.au/establishments/hmas-albatross,https://en.wikipedia.org/wiki/HMAS_Albatross_(air_station),,250,2022-08-01T12:42:04+00:00
27110,YPKT,medium_airport,"Port Keats Airport",-14.249701,129.529538,91,OC,Australia,AU,"Northern Territory",AU-NT,NT,Wadeye,0,YPKT,,PKT,,,https://en.wikipedia.org/wiki/Port_Keats_Airfield,,250,2024-05-18T12:13:39+00:00
27182,YWWL,medium_airport,"West Wyalong Airport",-33.9371986389,147.190994263,859,OC,Australia,AU,"New South Wales",AU-NSW,NSW,"West Wyalong",0,YWWL,YWWL,WWY,,,https://en.wikipedia.org/wiki/West_Wyalong_Airport,,250,2013-06-29T10:06:54+00:00
26933,YBTI,medium_airport,"Bathurst Island Airport",-11.764966,130.615774,67,OC,Australia,AU,"Northern Territory",AU-NT,NT,Wurrumiyanga,0,YBTI,YBTI,BRT,,,https://en.wikipedia.org/wiki/Bathurst_Island_Airport,,250,2024-05-29T06:17:34+00:00
26892,YARG,small_airport,"Argyle Airport",-16.6369,128.451004,522,OC,Australia,AU,"Western Australia",AU-WA,WA,,0,YARG,YARG,GYL,,,https://en.wikipedia.org/wiki/Argyle_Airport,,150,2025-02-05T15:11:06+00:00
27077,YMTI,small_airport,"Mornington Island Airport",-16.662500381469727,139.17799377441406,33,OC,Australia,AU,Queensland,AU-QLD,QLD,,1,YMTI,YMTI,ONG,,,https://en.wikipedia.org/wiki/Mornington_Island_Airport,,150,2008-06-26T14:52:34+00:00
27126,YRMD,small_airport,"Richmond Airport",-20.701900482177734,143.11500549316406,676,OC,Australia,AU,Queensland,AU-QLD,QLD,,1,YRMD,YRMD,RCM,,,https://en.wikipedia.org/wiki/Richmond_Airport,"RAAF Base Richmond",150,2008-06-26T14:52:34+00:00
27964,YSRN,small_airport,"Strahan Airport",-42.154999,145.292007,20,OC,Australia,AU,Tasmania,AU-TAS,TAS,,0,YSRN,YSRN,SRN,,,https://en.wikipedia.org/wiki/Strahan_Airport,,150,2025-02-26T17:30:33+00:00
29715,YBOI,small_airport,"Boigu Island Airport",-9.23278,142.218002,23,OC,Australia,AU,Queensland,AU-QLD,QLD,"Boigu Island",1,YBOI,YBOI,GIC,,,https://en.wikipedia.org/wiki/Boigu_Island_Airport,,150,2022-11-27T14:48:54+00:00
31215,NLWF,small_airport,"Pointe Vele Airport",-14.311565,-178.066492,20,OC,"Wallis and Futuna",WF,(unassigned),WF-U-A,U-A,"Futuna Island",1,NLWF,NLWF,FUT,,,https://en.wikipedia.org/wiki/Pointe_Vele_Airport,,150,2024-04-15T16:56:10+00:00
31682,NVVI,small_airport,"Ipota Airport",-18.856389,169.283333,23,OC,Vanuatu,VU,Tafea,VU-TAE,TAE,Ipota,0,NVVI,NVVI,IPA,,,https://en.wikipedia.org/wiki/Ipota_Airport,,150,2025-02-07T03:50:21+00:00
31841,NVSG,small_airport,"Longana Airport",-15.3066997528,167.966995239,167,OC,Vanuatu,VU,Penama,VU-PAM,PAM,Longana,1,NVSG,NVSG,LOD,,,https://en.wikipedia.org/wiki/Longana_Airport,,150,2013-12-15T12:55:06+00:00
31836,NVSO,small_airport,"Lonorore Airport",-15.865599632299999,168.17199707,43,OC,Vanuatu,VU,Penama,VU-PAM,PAM,Lonorore,1,NVSO,NVSO,LNE,,,https://en.wikipedia.org/wiki/Lonorore_Airport,"Pentecost Island",150,2013-12-15T13:01:46+00:00
31926,NFMA,small_airport,"Mana Island Airport",-17.672844,177.0985,,OC,Fiji,FJ,"Western Division",FJ-W,W,"Mana Island",1,NFMA,NFMA,MNF,,,https://en.wikipedia.org/wiki/Mana_Island_Airport,,150,2022-03-18T02:23:03+00:00
27114,YPMP,small_airport,"Pormpuraaw Airport",-14.896451,141.60908,10,OC,Australia,AU,Queensland,AU-QLD,QLD,Pormpuraaw,1,YPMP,YPMP,EDR,,,https://en.wikipedia.org/wiki/Edward_River_Airport,"Edward River Airport",150,2016-02-13T15:56:04+00:00
32275,AGGL,small_airport,"Santa Cruz/Graciosa Bay/Luova Airport",-10.7203,165.794998,18,OC,"Solomon Islands",SB,"Temotu Province",SB-TE,TE,"Santa Cruz/Graciosa Bay/Luova",1,AGGL,AGGL,SCZ,,,https://en.wikipedia.org/wiki/Luova_Airport,,150,2024-05-17T09:01:22+00:00
32451,AYTA,small_airport,"Tari Airport",-5.845,142.947998,5500,OC,"Papua New Guinea",PG,"Hela Province",PG-HLA,HLA,Tari,1,AYTA,AYTA,TIZ,,,https://en.wikipedia.org/wiki/Tari_Airport,,150,2024-05-17T09:05:11+00:00
32499,NTMP,small_airport,"Ua Pou Airport",-9.35167,-140.078003,16,OC,"French Polynesia",PF,(unassigned),PF-U-A,U-A,"Ua Pou",1,NTMP,NTMP,UAP,,,https://en.wikipedia.org/wiki/Ua_Pou_Airport,,150,2018-09-15T16:26:07+00:00
27563,YFLI,small_airport,"Flinders Island Airport",-40.091702,147.992996,10,OC,Australia,AU,Tasmania,AU-TAS,TAS,Whitemark,1,YFLI,YFLI,FLS,,http://www.flinders.tas.gov.au/flinders-island-airport,https://en.wikipedia.org/wiki/Flinders_Island_Airport,,150,2025-03-08T09:00:48+00:00
27121,YPWR,small_airport,"Woomera Airfield",-31.144199,136.817001,548,OC,Australia,AU,"South Australia",AU-SA,SA,Woomera,0,YPWR,YPWR,UMR,,,https://en.wikipedia.org/wiki/Woomera_Airfield,RAAF,150,2025-02-04T23:19:11+00:00
316690,YPMH,small_airport,"Prominent Hill Airport",-29.716,135.5244,745,OC,Australia,AU,"South Australia",AU-SA,SA,"Mount Eba",1,YPMH,YPMH,PXH,,,https://en.wikipedia.org/wiki/Prominent_Hill_Airport,,100,2022-08-15T13:12:22+00:00
27322,YALG,small_airport,"Adels Grove Airport",-18.694729,138.527727,,OC,Australia,AU,Queensland,AU-QLD,QLD,,0,YALG,,,,,,,50,2022-02-09T14:41:48+00:00
27382,AU-0666,closed,"Bindook NDB",-34.166698,150.100006,,OC,Australia,AU,"New South Wales",AU-NSW,NSW,,0,,,,,,,"YBIK, YBIK",50,2025-02-25T14:48:45+00:00
27394,YBMI,small_airport,"Boomi Airport",-28.728373,149.595181,618,OC,Australia,AU,"New South Wales",AU-NSW,NSW,,0,YBMI,,,,,,,50,2021-10-01T16:31:21+00:00
27438,YCAL,small_airport,"Castlemaine Airport",-37.13330078125,144.16700744628906,,OC,Australia,AU,Victoria,AU-VIC,VIC,,0,YCAL,,,,,,,50,2008-06-26T14:52:34+00:00
27442,YCBR,small_airport,"Collarenebri Airport",-29.523239,148.578243,152,OC,Australia,AU,"New South Wales",AU-NSW,NSW,,0,YCBR,YCBR,CRB,,,https://en.wikipedia.org/wiki/Collarenebri_Airport,,50,2022-09-02T11:39:31+00:00
